類別	名稱	地址	縣市	鄉鎮	經度	緯度
全聯	宜蘭三星	(26641)宜蘭縣三星鄉中山路２段39號1樓	宜蘭縣	三星鄉	121.652376	24.668431
全聯	五結新生	(26845)宜蘭縣五結鄉五結路２段450號	宜蘭縣	五結鄉	121.796697	24.684774
全聯	冬山香和	(26948)宜蘭縣冬山鄉冬山路１段837號	宜蘭縣	冬山鄉	121.795949	24.631446
全聯	宜蘭北門	(26044)宜蘭縣宜蘭市中山路３段95號	宜蘭縣	宜蘭市	121.752661	24.758138
全聯	宜蘭三清	(26049)宜蘭縣宜蘭市三清路96號	宜蘭縣	宜蘭市	121.746229	24.755980
全聯	宜蘭健康	(26047)宜蘭縣宜蘭市健康路２段70.72.76.78號	宜蘭縣	宜蘭市	121.751355	24.747962
全聯	宜蘭復興	(26051)宜蘭縣宜蘭市復興路２段36號	宜蘭縣	宜蘭市	121.748906	24.748902
全聯	宜蘭泰山	(26052)宜蘭縣宜蘭市泰山路332號	宜蘭縣	宜蘭市	121.735884	24.750265
全聯	宜蘭新生	(26054)宜蘭縣宜蘭市中山路５段129號	宜蘭縣	宜蘭市	121.756636	24.770103
全聯	宜蘭嵐峰	(26066)宜蘭縣宜蘭市嵐峰路１段50.52號1樓	宜蘭縣	宜蘭市	121.754590	24.742741
全聯	宜蘭校舍	(26058)宜蘭縣宜蘭市校舍路116號	宜蘭縣	宜蘭市	121.761680	24.751503
全聯	宜蘭聖後	(26042)宜蘭縣宜蘭市聖後街68。70號	宜蘭縣	宜蘭市	121.757064	24.758560
全聯	宜蘭頭城	宜蘭縣頭城鎮開蘭路149號地下1樓	宜蘭縣	頭城鎮	121.823974	24.858999
全聯	頭城青雲	(26144)宜蘭縣頭城鎮青雲路３段298號	宜蘭縣	頭城鎮	121.826632	24.859170
全聯	礁溪	(26244)宜蘭縣礁溪鄉育才路1號	宜蘭縣	礁溪鄉	121.770253	24.821126
全聯	羅東中正	(26546)宜蘭縣羅東鎮中正南路88號	宜蘭縣	羅東鎮	121.771683	24.669789
全聯	羅東倉前	(26561)宜蘭縣羅東鎮倉前路49號	宜蘭縣	羅東鎮	121.770948	24.68047
全聯	羅東南門	(26545)宜蘭縣羅東鎮南門路86號	宜蘭縣	羅東鎮	121.767531	24.673055
全聯	羅東純精	(26549)宜蘭縣羅東鎮純精路２段230號1-2號	宜蘭縣	羅東鎮	121.764125	24.679017
全聯	羅東	(26563)宜蘭縣羅東鎮純精路１段8號	宜蘭縣	羅東鎮	121.766686	24.669031
全聯	羅東光榮	(26561)宜蘭縣羅東鎮光榮路200號	宜蘭縣	羅東鎮	121.777879	24.674074
全聯	羅東培英	(26543)宜蘭縣羅東鎮培英路2號	宜蘭縣	羅東鎮	121.763027	24.677304
全聯	羅東站前	(26548)宜蘭縣羅東鎮站前路18號	宜蘭縣	羅東鎮	121.558024	25.080954
全聯	蘇澳中山	(27044)宜蘭縣蘇澳鎮中山路１段157、159號	宜蘭縣	蘇澳鎮	121.847271	24.595843
全聯	玉里仁愛	(98143)花蓮縣玉里鎮仁愛路１段116號	花蓮縣	玉里鎮	121.317133	23.328688
全聯	花蓮玉里	(98143)花蓮縣玉里鎮和平路92號	花蓮縣	玉里鎮	121.314178	23.333448
全聯	花蓮光復	(97642)花蓮縣光復鄉中山路２段299-1、299-2號	花蓮縣	光復鄉	121.424458	23.667723
全聯	花蓮慶豐	(97365)花蓮縣吉安鄉中山路３段136、138號	花蓮縣	吉安鄉	121.573613	23.976568
全聯	吉安	(97342)花蓮縣吉安鄉中華路２段232號	花蓮縣	吉安鄉	121.582344	23.973780
全聯	花蓮建國	(97348)花蓮縣吉安鄉建國路１段119-3號	花蓮縣	吉安鄉	121.592359	23.985441
全聯	吉安自強	(97343)花蓮縣吉安鄉自強路281號	花蓮縣	吉安鄉	121.588146	23.981648
全聯	花蓮重慶	(97042)花蓮縣花蓮市重慶路331、333號	花蓮縣	花蓮市	121.607603	23.971684
全聯	花蓮林森	(97052)花蓮縣花蓮市林森路69-71號	花蓮縣	花蓮市	121.597318	23.976264
全聯	花蓮美崙	(97061)花蓮縣花蓮市中美路113-6、113-7、113-8號	花蓮縣	花蓮市	121.626931	23.992449
全聯	花蓮太昌	(97072)花蓮縣花蓮市建國路２段262、266號	花蓮縣	花蓮市	121.578356	23.991808
全聯	花蓮國聯	(97055)花蓮縣花蓮市國聯二路１１０號	花蓮縣	花蓮市	121.602041	23.988807
全聯	花蓮中正	(97043)花蓮縣花蓮市中正路230號	花蓮縣	花蓮市	121.600344	23.972465
全聯	花蓮供售站	(97048)花蓮縣花蓮市公正街14號1。2樓	花蓮縣	花蓮市	121.610788	23.978131
全聯	瑞穗國光	(97841)花蓮縣瑞穗鄉國光南路91。93號	花蓮縣	瑞穗鄉	121.378760	23.495501
全聯	花蓮壽豐	(97442)花蓮縣壽豐鄉壽山路33.35號	花蓮縣	壽豐鄉	121.508838	23.869852
全聯	鳳林	(97545)花蓮縣鳳林鎮中正路２段212號	花蓮縣	鳳林鎮	121.450089	23.749235
全聯	金門民權	(89350)金門縣金城鎮民權路226巷1弄12。16號	金門縣	金城鎮	118.320373	24.439267
全聯	金門金湖	(89141)金門縣金湖鎮塔后147.149號	金門縣	金湖鎮	118.411842	24.439839
全聯	金門慈湖	(89244)金門縣金寧鄉下埔下56-1號	金門縣	金寧鄉	118.312686	24.444203
全聯	水里	南投縣水里鄉中山路一段271號	南投縣	水里鄉	120.852087	23.807117
全聯	南投名間	(55142)南投縣名間鄉彰南路46-2號	南投縣	名間鄉	120.704857	23.836152
全聯	竹山國中	(55747)南投縣竹山鎮竹山路152。156號	南投縣	竹山鎮	120.681706	23.753750
全聯	大明	南投縣竹山鎮竹圍里大禮路129號	南投縣	竹山鎮	120.679826	23.759908
全聯	竹山集山	(55779)南投縣竹山鎮集山路３段227、229號	南投縣	竹山鎮	120.700878	23.763378
全聯	南投文昌	南投縣南投市文昌街19號	南投縣	南投市	120.689694	23.907483
全聯	南投學藝	(54046)南投縣南投市學藝路27號	南投縣	南投市	120.689304	23.950768
全聯	南投彰南	(54056)南投縣南投市彰南路１段560.562.566.568號1樓	南投縣	南投市	120.687956	23.895433
全聯	南投南陽	南投縣南投市南陽路452號1樓	南投縣	南投市	120.681556	23.912462
全聯	埔里信義	(54541)南投縣埔里鎮信義路217號	南投縣	埔里鎮	120.972526	23.973042
全聯	埔里中正	(54544)南投縣埔里鎮中正路597號	南投縣	埔里鎮	120.963140	23.972309
全聯	埔里	(54551)南投縣埔里鎮中山路３段376號	南投縣	埔里鎮	120.955333	23.969472
全聯	南興	南投縣埔里鎮南興街249號	南投縣	埔里鎮	120.964606	23.963350
全聯	北門	南投縣埔里鎮自強路80號	南投縣	埔里鎮	120.972185	23.967046
全聯	草屯中山	(54242)南投縣草屯鎮中山街57號	南投縣	草屯鎮	120.682344	23.975389
全聯	草屯和興	(54241)南投縣草屯鎮和興街55號	南投縣	草屯鎮	120.684880	23.978240
全聯	草屯中正	(54244)南投縣草屯鎮中正路557之19-5號	南投縣	草屯鎮	120.699537	23.978565
全聯	草屯	南投縣草屯鎮信義街368號	南投縣	草屯鎮	120.679945	23.982922
全聯	草屯虎山	南投縣草屯鎮虎山路500之1之4號	南投縣	草屯鎮	120.687230	23.968814
全聯	南投國姓	(54443)南投縣國姓鄉中興路72號	南投縣	國姓鄉	120.857281	24.042168
全聯	南投魚池	(55542)南投縣魚池鄉魚池街539號	南投縣	魚池鄉	120.935169	23.898240
全聯	鹿谷鹿彰	(55844)南投縣鹿谷鄉鹿彰路166。168號	南投縣	鹿谷鄉	120.752794	23.744992
全聯	集集民生	(55244)南投縣集集鎮民生路9-21、9-22號	南投縣	集集鎮	120.793513	23.827816
全聯	九如九里	(90441)屏東縣九如鄉九里路59-5、59-6、59-7號	屏東縣	九如鄉	120.488239	22.734886
全聯	內埔昭勝	(91245)屏東縣內埔鄉昭勝路410、412號	屏東縣	內埔鄉	120.601233	22.677489
全聯	內埔永光	(91243)屏東縣內埔鄉永光路3號	屏東縣	內埔鄉	120.564101	22.608804
全聯	內埔勝光	(91241)屏東縣內埔鄉勝光路60號	屏東縣	內埔鄉	120.571667	22.614245
全聯	屏東里港	(90541)屏東縣里港鄉鐵店路21-30.21-31號	屏東縣	里港鄉	120.497966	22.777753
全聯	佳冬玉光	(93144)屏東縣佳冬鄉玉光街107、109、111號	屏東縣	佳冬鄉	120.563351	22.430111
全聯	東港	(92842)屏東縣東港鎮長春一路８０號	屏東縣	東港鎮	120.458926	22.472013
全聯	東港博愛	(92843)屏東縣東港鎮博愛街268號之1	屏東縣	東港鎮	120.448790	22.469087
全聯	屏東枋寮	(94043)屏東縣枋寮鄉中興路22-17號	屏東縣	枋寮鄉	120.593439	22.367239
全聯	屏東林邊	(92741)屏東縣林邊鄉中林路282-16號	屏東縣	林邊鄉	120.519479	22.438481
全聯	長治潭頭	(90843)屏東縣長治鄉潭頭路86號1樓	屏東縣	長治鄉	120.525496	22.675569
全聯	屏東南州	(92641)屏東縣南州鄉人和路1-2,1-3號	屏東縣	南州鄉	120.511648	22.489509
全聯	屏東大連	屏東縣屏東市大連路21號1樓	屏東縣	屏東市	120.505389	22.683026
全聯	屏東自由	(90065)屏東縣屏東市自由路589號	屏東縣	屏東市	120.485372	22.683184
全聯	屏東民族	屏東縣屏東市民族路202號	屏東縣	屏東市	120.480793	22.671280
全聯	勝利	屏東縣屏東市勝利東路41號1樓	屏東縣	屏東市	120.499283	22.676828
全聯	屏東永大	(90091)屏東縣屏東市永大路71號	屏東縣	屏東市	120.478829	22.661076
全聯	屏東廣東	(90060)屏東縣屏東市廣東路1108-10號	屏東縣	屏東市	120.483080	22.687574
全聯	屏東中正	(90059)屏東縣屏東市中正路590號	屏東縣	屏東市	120.496548	22.686833
全聯	屏東復興南	(90094)屏東縣屏東市復興南路１段187號	屏東縣	屏東市	120.486048	22.650836
全聯	屏東瑞民	(90049)屏東縣屏東市瑞民路6號	屏東縣	屏東市	120.507223	22.663169
全聯	屏東萬年	(90046)屏東縣屏東市自由路163.165號	屏東縣	屏東市	120.494090	22.668667
全聯	恆春西門	屏東縣恆春鎮西門路110號	屏東縣	恆春鎮	120.743598	22.008100
全聯	恆春恆南	(94641)屏東縣恆春鎮恒南路30.32號	屏東縣	恆春鎮	120.747355	21.991527
全聯	恆春環城南	(94641)屏東縣恆春鎮恆南路1巷6-6、6-7號	屏東縣	恆春鎮	120.743523	21.997533
全聯	高樹信義	(90641)屏東縣高樹鄉信義路21號	屏東縣	高樹鄉	120.600578	22.823029
全聯	新埤中正	(92541)屏東縣新埤鄉中正路7，9號	屏東縣	新埤鄉	120.552253	22.470178
全聯	新園	(93245)屏東縣新園鄉仙吉路32號	屏東縣	新園鄉	120.460184	22.540205
全聯	萬丹	(91341)屏東縣萬丹鄉大憲街210號	屏東縣	萬丹鄉	120.487725	22.587295
全聯	萬丹大順	(91350)屏東縣萬丹鄉大順路56號	屏東縣	萬丹鄉	120.472547	22.616226
全聯	屏東萬巒	(92341)屏東縣萬巒鄉褒忠路229-1號	屏東縣	萬巒鄉	120.567647	22.575645
全聯	潮州延平	屏東縣潮州鎮延平路156號	屏東縣	潮州鎮	120.540398	22.555443
全聯	朝昇	(92041)屏東縣潮州鎮昇東路93號	屏東縣	潮州鎮	120.548820	22.551703
全聯	潮州光復	(92043)屏東縣潮州鎮光復路179號	屏東縣	潮州鎮	120.535534	22.538215
全聯	潮州公園	(92052)屏東縣潮州鎮公園路117。119號	屏東縣	潮州鎮	120.536283	22.552988
全聯	鹽埔維新	(90741)屏東縣鹽埔鄉維新路42-5號	屏東縣	鹽埔鄉	120.553355	22.737064
全聯	三義	(36742)苗栗縣三義鄉廣盛村廣盛39-1號	苗栗縣	三義鄉	120.77094	24.413635
全聯	公館大同	苗栗縣公館鄉大同路201號	苗栗縣	公館鄉	120.827041	24.504368
全聯	竹南	苗栗縣竹南鎮大營路175-1號	苗栗縣	竹南鎮	120.872695	24.686904
全聯	竹南中正	(35047)苗栗縣竹南鎮中正路96-1號	苗栗縣	竹南鎮	120.874951	24.683848
全聯	竹南光復	(35041)苗栗縣竹南鎮光復路193巷48號	苗栗縣	竹南鎮	120.877520	24.688386
全聯	竹南公義	(35059)苗栗縣竹南鎮公義路1146號	苗栗縣	竹南鎮	120.902072	24.712149
全聯	竹南龍山	(35049)苗栗縣竹南鎮龍山路１段260、262號	苗栗縣	竹南鎮	120.867709	24.693900
全聯	卓蘭經國	(36941)苗栗縣卓蘭鎮經國路128號	苗栗縣	卓蘭鎮	120.823209	24.313412
全聯	卓蘭昭永	(36944)苗栗縣卓蘭鎮昭永路1號	苗栗縣	卓蘭鎮	120.826743	24.309712
全聯	後龍中華	(35641)苗栗縣後龍鎮中華路55-6、55-7、55-15號	苗栗縣	後龍鎮	120.790625	24.616483
全聯	苑裡中山	(35841)苗栗縣苑裡鎮中山路320號	苗栗縣	苑裡鎮	120.655050	24.447517
全聯	苑裡世界	(35856)苗栗縣苑裡鎮世界路１段91-13號	苗栗縣	苑裡鎮	120.657343	24.439407
全聯	苗栗中華	(36045)苗栗縣苗栗市中華路132號	苗栗縣	苗栗市	120.824976	24.573430
全聯	苗栗中正	苗栗縣苗栗市中正路649號	苗栗縣	苗栗市	120.819963	24.555577
全聯	苗栗縣府	苗栗縣苗栗市縣府路123號	苗栗縣	苗栗市	120.819021	24.564606
全聯	通霄自強	(35741)苗栗縣通霄鎮自強路3、5號	苗栗縣	通霄鎮	120.680145	24.486567
全聯	苗栗銅鑼	(36641)苗栗縣銅鑼鄉大同路51.53號	苗栗縣	銅鑼鄉	120.786861	24.489819
全聯	頭份中央	(35146)苗栗縣頭份市中央路706號	苗栗縣	頭份市	120.891666	24.694551
全聯	頭份中華	(35154)苗栗縣頭份市中華路818號	苗栗縣	頭份市	120.904269	24.682264
全聯	頭份中興	(35149)苗栗縣頭份市中興路5。7號	苗栗縣	頭份市	120.894026	24.688817
全聯	頭份信東	(35149)苗栗縣頭份市信東路151號	苗栗縣	頭份市	120.909337	24.689550
全聯	八德興豐	(33451)桃園市八德區興豐路392、396、398號1樓	桃園市	八德區	121.288909	24.929387
全聯	八德東勇	(33458)桃園市八德區東勇北路566、568號	桃園市	八德區	121.306668	24.965567
全聯	八德麻園	(33446)桃園市八德區介壽路２段333、335、339號	桃園市	八德區	121.297858	24.948559
全聯	八德永豐	(33464)桃園市八德區永豐路560、562、564號1樓	桃園市	八德區	121.271839	24.975326
全聯	八德大湳	桃園市八德區福國北街79號	桃園市	八德區	121.294846	24.960742
全聯	八德介壽	(33447)桃園市八德區介壽路２段1060號1樓	桃園市	八德區	121.297264	24.932190
全聯	大園菓林	(33746)桃園市大園區菓林路69號	桃園市	大園區	121.258298	25.075167
全聯	大園和平	(33756)桃園市大園區和平東路65號	桃園市	大園區	121.199927	25.062138
全聯	大園華興	(33750)桃園市大園區華興路36號	桃園市	大園區	121.192976	25.064226
全聯	大園春德	(33743)桃園市大園區領航北路３段199號	桃園市	大園區	121.212441	25.017413
全聯	大溪僑愛	(33543)桃園市大溪區介壽路108號	桃園市	大溪區	121.293643	24.921435
全聯	大溪員林	(33561)桃園市大溪區員林路１段5號1-3樓	桃園市	大溪區	121.283709	24.898496
全聯	大溪文化	(33555)桃園市大溪區文化路67號1樓	桃園市	大溪區	121.293640	24.881706
全聯	大溪中正	桃園市大溪區慈湖路66號	桃園市	大溪區	121.288804	24.882342
全聯	中壢環東	(32096)桃園市中壢區環中東路２段746、750、750-1、750-2號	桃園市	中壢區	121.227563	24.943425
全聯	中壢中美	桃園市中壢區中美路二段77號	桃園市	中壢區	121.222062	24.959776
全聯	中壢元化	(32043)桃園市中壢區元化路127號	桃園市	中壢區	121.228080	24.959101
全聯	中壢忠孝	桃園市中壢區忠孝路152號	桃園市	中壢區	121.255269	24.976074
全聯	中壢中北	(32087)桃園市中壢區中北路2段55號	桃園市	中壢區	121.224470	24.950526
全聯	中壢福州	(32059)桃園市中壢區福州一街126號	桃園市	中壢區	121.232562	24.965444
全聯	中壢領航	(32054)桃園市中壢區領航南路１段218號	桃園市	中壢區	121.207468	25.000409
全聯	中壢後興	(32091)桃園市中壢區後興路１段168號1樓	桃園市	中壢區	121.245647	24.941605
全聯	中壢廣州	(32088)桃園市中壢區廣州路90號	桃園市	中壢區	121.230249	24.951125
全聯	中壢普忠	(32083)桃園市中壢區普忠路1168號	桃園市	中壢區	121.256480	24.949398
全聯	中壢龍東	(32093)桃園市中壢區龍東路360、364號	桃園市	中壢區	121.255478	24.932383
全聯	龍岡供售站	(32094)桃園市中壢區龍東路2-50號3樓	桃園市	中壢區	121.254241	24.930453
全聯	中壢環中	桃園市中壢區環中東路325號	桃園市	中壢區	121.255318	24.961995
全聯	內壢長春	桃園市中壢區長春路119號	桃園市	中壢區	121.247891	24.97802
全聯	中壢中山	桃園市中壢區中山路500號	桃園市	中壢區	121.215577	24.957095
全聯	中壢中原	桃園市中壢區實踐路26號	桃園市	中壢區	121.242679	24.953921
全聯	平鎮南豐	(32459)桃園市平鎮區南豐路53.55號	桃園市	平鎮區	121.209470	24.900263
全聯	平鎮中豐	桃園市平鎮區中豐路南勢二段326號	桃園市	平鎮區	121.210513	24.910935
全聯	平鎮育達	(32445)桃園市平鎮區環南路237號	桃園市	平鎮區	121.206817	24.951251
全聯	平鎮環南	(32455)桃園市平鎮區環南路３段69號	桃園市	平鎮區	121.218506	24.940412
全聯	平鎮上海	(32458)桃園市平鎮區上海路250號	桃園市	平鎮區	121.206346	24.915941
全聯	平鎮延平	(32453)桃園市平鎮區延平路３段29號	桃園市	平鎮區	121.205654	24.941099
全聯	平鎮貿五	(32468)桃園市平鎮區貿五路12、18號	桃園市	平鎮區	121.252762	24.927724
全聯	平鎮祥安	(32461)桃園市平鎮區祥安街1號	桃園市	平鎮區	121.203603	24.894328
全聯	平鎮龍南	(32467)桃園市平鎮區龍南路556、558號	桃園市	平鎮區	121.255294	24.917872
全聯	平鎮新富	(32474)桃園市平鎮區新富五街66。68號	桃園市	平鎮區	121.213547	24.939592
全聯	平鎮和平	桃園市平鎮區和平路185號	桃園市	平鎮區	121.219843	24.946249
全聯	桃園慈文	桃園市桃園區慈文路317號	桃園市	桃園區	121.301747	25.006500
全聯	桃園永安	(33059)桃園市桃園區永安路355號	桃園市	桃園區	121.299951	24.999939
全聯	桃園建國	(33064)桃園市桃園區三民路３段518號	桃園市	桃園區	121.307459	24.983004
全聯	桃園中埔	(33046)桃園市桃園區中埔二街158.160號	桃園市	桃園區	121.295715	25.012694
全聯	桃園大業	(33051)桃園市桃園區大業路２段51、53號	桃園市	桃園區	121.310952	25.017138
全聯	桃園同德	(33045)桃園市桃園區中正路1047號	桃園市	桃園區	121.298627	25.015479
全聯	桃園東國	(33047)桃園市桃園區東國街38號1樓	桃園市	桃園區	121.314308	24.996548
全聯	桃園福元	(33049)桃園市桃園區大業路１段136號	桃園市	桃園區	121.316274	25.006705
全聯	桃園正光	(33080)桃園市桃園區正光路459號	桃園市	桃園區	121.294082	25.001436
全聯	桃園天祥	(33044)桃園市桃園區天祥五街16號	桃園市	桃園區	121.303398	25.018685
全聯	桃園春日	(33050)桃園市桃園區春日路69-1號	桃園市	桃園區	121.317118	24.992588
全聯	桃園供售站	(33047)桃園市桃園區東國街38號1樓之1	桃園市	桃園區	121.314232	24.996795
全聯	桃園國際	(33072)桃園市桃園區國際路２段117號1樓	桃園市	桃園區	121.28792	24.993106
全聯	桃園大有	桃園市桃園區大有路581號	桃園市	桃園區	121.316515	25.016054
全聯	桃園桃鶯	(33075)桃園市桃園區桃鶯路196號1樓	桃園市	桃園區	121.319064	24.981966
全聯	桃園三民	(33042)桃園市桃園區三民路３段11巷1號	桃園市	桃園區	121.308308	24.998572
全聯	桃園莊敬	桃園市桃園區莊敬路二段99號	桃園市	桃園區	121.29315	25.022469
全聯	桃園復興	桃園市桃園區復興路380號1樓	桃園市	桃園區	121.303746	24.990365
全聯	桃園武陵	(33072)桃園市桃園區國際路１段1136號	桃園市	桃園區	121.289368	24.987780
全聯	桃園中正	(33047)桃園市桃園區中正路498、500號1樓	桃園市	桃園區	121.306335	25.002230
全聯	新屋中山	桃園市新屋區中山路409號	桃園市	新屋區	121.101168	24.973031
全聯	楊梅新農	(32641)桃園市楊梅區新農街17號	桃園市	楊梅區	121.146603	24.909214
全聯	楊梅瑞溪	(32658)桃園市楊梅區瑞溪路２段161號	桃園市	楊梅區	121.181472	24.909354
全聯	楊梅民族	(32646)桃園市楊梅區民族路５段219號	桃園市	楊梅區	121.171883	24.958402
全聯	楊梅梅獅	(32658)桃園市楊梅區梅獅路２段25、27號	桃園市	楊梅區	121.174908	24.910689
全聯	楊梅中山北	(32668)桃園市楊梅區中山北路１段2弄1號	桃園市	楊梅區	121.151462	24.908148
全聯	楊梅文化	(32654)桃園市楊梅區文化街86。88號	桃園市	楊梅區	121.184407	24.914873
全聯	楊梅中山	(32665)桃園市楊梅區中山北路１段260.262.264號	桃園市	楊梅區	121.155464	24.908396
全聯	龍潭中豐	(32560)桃園市龍潭區中豐路293-303號	桃園市	龍潭區	121.211628	24.878067
全聯	龍潭三林	(32546)桃園市龍潭區中正路三林段298號	桃園市	龍潭區	121.230951	24.848389
全聯	龍潭中興	(32555)桃園市龍潭區中興路398-2號	桃園市	龍潭區	121.229439	24.872822
全聯	龍潭北龍	桃園市龍潭區北龍路19號	桃園市	龍潭區	121.211252	24.865459
全聯	龍潭中正	桃園市龍潭區中正路311-3號	桃園市	龍潭區	121.218005	24.861645
全聯	龜山萬壽	(33342)桃園市龜山區中和南路40.42號	桃園市	龜山區	121.339255	24.995067
全聯	龜山文化	(33377)桃園市龜山區復興二路3號	桃園市	龜山區	121.371246	25.053053
全聯	龜山中興	(33343)桃園市龜山區新樂街36號	桃園市	龜山區	121.335596	24.992965
全聯	林口復興	(33375)桃園市龜山區復興一路8號B1	桃園市	龜山區	121.369556	25.060269
全聯	龜山興華	(33377)桃園市龜山區文化三路316號	桃園市	龜山區	121.365310	25.055630
全聯	龜山文青	(33371)桃園市龜山區文青路198號	桃園市	龜山區	121.388319	25.039946
全聯	龜山大同	(33352)桃園市龜山區大同路222號	桃園市	龜山區	121.344190	24.990518
全聯	龜山長慶	(33375)桃園市龜山區長慶三街81。83號	桃園市	龜山區	121.383697	25.055161
全聯	龜山迴龍	桃園市龜山區萬壽路一段161號地下1樓	桃園市	龜山區	121.407361	25.018322
全聯	龜山自強	桃園市龜山區新興村自強南路83號	桃園市	龜山區	121.338953	24.992479
全聯	蘆竹大竹	(33862)桃園市蘆竹區大新一街15號	桃園市	蘆竹區	121.256866	25.024110
全聯	蘆竹南崁	(33858)桃園市蘆竹區南崁路152號	桃園市	蘆竹區	121.294378	25.047090
全聯	蘆竹吉林	(33850)桃園市蘆竹區吉林路13號	桃園市	蘆竹區	121.295878	25.050909
全聯	蘆竹上興	(33862)桃園市蘆竹區大竹路367.369號	桃園市	蘆竹區	121.264829	25.020157
全聯	蘆竹南昌	(33845)桃園市蘆竹區南福街102號	桃園市	蘆竹區	121.292591	25.040132
全聯	蘆竹南竹	(33845)桃園市蘆竹區南竹路２段171.171-1號	桃園市	蘆竹區	121.283861	25.039066
全聯	蘆竹山腳	(33851)桃園市蘆竹區南山路３段427號	桃園市	蘆竹區	121.287327	25.088155
全聯	蘆竹興福	(33862)桃園市蘆竹區上興路182號	桃園市	蘆竹區	121.261644	25.019336
全聯	蘆竹六福	(33861)桃園市蘆竹區六福路357。359號	桃園市	蘆竹區	121.294462	25.061348
全聯	蘆竹忠孝	桃園市蘆竹區忠孝西路50號	桃園市	蘆竹區	121.264857	25.020092
全聯	觀音大觀	(32847)桃園市觀音區大觀路２段151.153.155號	桃園市	觀音區	121.141656	25.046279
全聯	觀音中山	(32850)桃園市觀音區中山路２段891、893號	桃園市	觀音區	121.141093	25.010488
全聯	三民鼎泰	高雄市三民區鼎泰街232號	高雄市	三民區	120.318362	22.665825
全聯	高雄博愛	高雄市三民區博愛一路229號	高雄市	三民區	120.302998	22.648081
全聯	高雄明誠	(80786)高雄市三民區明誠一路358號	高雄市	三民區	120.323944	22.660054
全聯	高雄建工	(80778)高雄市三民區建工路736號	高雄市	三民區	120.319471	22.648573
全聯	高雄大昌	(80776)高雄市三民區大昌二路525號1、2樓	高雄市	三民區	120.330178	22.651338
全聯	高雄九如	(80764)高雄市三民區九如一路609號	高雄市	三民區	120.325351	22.639285
全聯	高雄明仁	(80794)高雄市三民區明仁路57號	高雄市	三民區	120.314270	22.661618
全聯	高雄覺民	高雄市三民區覺民路617號	高雄市	三民區	120.328419	22.641073
全聯	高雄自強	(80749)高雄市三民區自強一路245號	高雄市	三民區	120.291106	22.635931
全聯	高雄鼎力	(80790)高雄市三民區鼎力路243號	高雄市	三民區	120.323384	22.668702
全聯	三民鼎中	(80791)高雄市三民區鼎中路668號	高雄市	三民區	120.321731	22.673519
全聯	高雄光武	(80765)高雄市三民區九如一路278號	高雄市	三民區	120.335307	22.638002
全聯	高雄大昌二	(80776)高雄市三民區大昌二路146號	高雄市	三民區	120.332250	22.644320
全聯	三民金獅湖	(80789)高雄市三民區鼎力路15、17、19、21號	高雄市	三民區	120.321684	22.662387
全聯	三民褒揚	(80773)高雄市三民區褒揚街285號	高雄市	三民區	120.339929	22.640953
全聯	三民陽明	(80771)高雄市三民區陽明路300號	高雄市	三民區	120.342312	22.643491
全聯	高雄大社	高雄市大社區中山路347號	高雄市	大社區	120.351134	22.731710
全聯	大社金龍	(81547)高雄市大社區金龍路338、340號	高雄市	大社區	120.353332	22.724616
全聯	大寮二	高雄市大寮區鳳林四路254號	高雄市	大寮區	120.383961	22.618660
全聯	大寮	(83152)高雄市大寮區鳳林三路449.451號	高雄市	大寮區	120.395694	22.604106
全聯	大寮三隆	(83161)高雄市大寮區大寮路667、669號	高雄市	大寮區	120.414066	22.591867
全聯	高雄大樹	(84042)高雄市大樹區新鎮路850.858.866號	高雄市	大樹區	120.417543	22.656848
全聯	小港宏平	(81268)高雄市小港區宏平路１５２號１樓	高雄市	小港區	120.361699	22.570209
全聯	小港	(81246)高雄市小港區小港路150-3號1樓	高雄市	小港區	120.339488	22.565332
全聯	小港店北	(81248)高雄市小港區店北路159號	高雄市	小港區	120.351374	22.562549
全聯	小港山明	(81267)高雄市小港區山明路112、116、118號	高雄市	小港區	120.365444	22.565774
全聯	小港康莊	(81254)高雄市小港區康莊路80號	高雄市	小港區	120.355698	22.568296
全聯	高雄仁武	(81463)高雄市仁武區仁雄路25號之1	高雄市	仁武區	120.351580	22.680990
全聯	仁武永仁	(81457)高雄市仁武區永仁街352號	高雄市	仁武區	120.334732	22.684380
全聯	仁武八德	(81462)高雄市仁武區八德中路52、56、58、60號	高雄市	仁武區	120.338650	22.685827
全聯	仁武八德南	(81455)高雄市仁武區八德南路475、479號	高雄市	仁武區	120.340999	22.677654
全聯	仁武鳳仁	(81459)高雄市仁武區鳳仁路1之52號	高雄市	仁武區	120.360717	22.671213
全聯	仁武霞海	(81457)高雄市仁武區霞海路46。48號	高雄市	仁武區	120.323307	22.682167
全聯	仁武中華	(81452)高雄市仁武區中華路355。357。359號	高雄市	仁武區	120.353809	22.701046
全聯	左營重愛	高雄市左營區重愛路112號	高雄市	左營區	120.317593	22.683860
全聯	高雄博愛三	(81367)高雄市左營區博愛三路336號	高雄市	左營區	120.306851	22.676943
全聯	高雄重信	高雄市左營區重信路8號	高雄市	左營區	120.315407	22.683658
全聯	高雄自由	(81363)高雄市左營區自由三路20號	高雄市	左營區	120.310244	22.669504
全聯	高雄左大	高雄市左營區左營大路272號	高雄市	左營區	120.290494	22.685966
全聯	高雄榮佑	(81362)高雄市左營區榮佑路25號	高雄市	左營區	120.320726	22.681802
全聯	左營高鐵	(81355)高雄市左營區華夏路1255號	高雄市	左營區	120.310258	22.685192
全聯	左營文康	(81356)高雄市左營區文康路85號1-2樓	高雄市	左營區	120.303543	22.673038
全聯	左營自由二	(81366)高雄市左營區自由二路325-1號	高雄市	左營區	120.308068	22.663742
全聯	左營富國	(81357)高雄市左營區富國路71。71-1。73號	高雄市	左營區	120.306469	22.659399
全聯	岡山仁壽	高雄市岡山區仁壽路22號	高雄市	岡山區	120.289741	22.793237
全聯	岡山民有	(82051)高雄市岡山區民有路44號	高雄市	岡山區	120.297518	22.792289
全聯	岡山壽華	(82041)高雄市岡山區壽華路131號	高雄市	岡山區	120.291990	22.800359
全聯	岡山大仁	(82061)高雄市岡山區大仁北路3號1樓	高雄市	岡山區	120.301836	22.802375
全聯	岡山公園西	(82041)高雄市岡山區公園西路3段83號	高雄市	岡山區	120.284622	22.794510
全聯	岡山岡燕	(82054)高雄市岡山區岡燕路338號	高雄市	岡山區	120.307031	22.791231
全聯	岡山大仁北	(82054)高雄市岡山區大仁北路363號	高雄市	岡山區	120.302668	22.794911
全聯	高雄林園	高雄市林園區東林西路394號	高雄市	林園區	120.385606	22.503868
全聯	高雄林園三	高雄市林園區林園北路495巷1號	高雄市	林園區	120.395107	22.515246
全聯	高雄鳳林	(83252)高雄市林園區鳳林路２段37號	高雄市	林園區	120.396041	22.507960
全聯	高雄阿蓮	高雄市阿蓮區民族路38巷13號	高雄市	阿蓮區	120.330567	22.880025
全聯	高雄中華	(80145)高雄市前金區中華三路171號	高雄市	前金區	120.294838	22.631694
全聯	瑞祥	高雄市前鎮區崗山西街206號	高雄市	前鎮區	120.328007	22.603673
全聯	前鎮康定	(80673)高雄市前鎮區康定路170號	高雄市	前鎮區	120.316103	22.589320
全聯	高雄管仲	(80661)高雄市前鎮區管仲路20號	高雄市	前鎮區	120.312311	22.606334
全聯	前鎮和誠	(80668)高雄市前鎮區和誠街107.117號	高雄市	前鎮區	120.321481	22.579006
全聯	美濃泰安	(84348)高雄市美濃區泰安路172號	高雄市	美濃區	120.542034	22.902297
全聯	苓雅光華	(80253)高雄市苓雅區光華一路148號之31	高雄市	苓雅區	120.316130	22.622885
全聯	高雄苓雅	高雄市苓雅區林森二路36號	高雄市	苓雅區	120.308109	22.616610
全聯	高雄苓雅二	(80248)高雄市苓雅區苓雅一路406-1號	高雄市	苓雅區	120.303540	22.618816
全聯	高雄建國	(80284)高雄市苓雅區建國一路107號	高雄市	苓雅區	120.334309	22.630906
全聯	苓雅四維二	(80266)高雄市苓雅區四維二路100之5號	高雄市	苓雅區	120.318415	22.622315
全聯	高雄正義	(80286)高雄市苓雅區正義路248號	高雄市	苓雅區	120.340953	22.632798
全聯	苓雅二聖	(80263)高雄市苓雅區二聖一路58號	高雄市	苓雅區	120.325246	22.612105
全聯	苓雅三多	(80247)高雄市苓雅區三多四路123、123-1號	高雄市	苓雅區	120.299266	22.612034
全聯	茄萣仁愛	(85242)高雄市茄萣區仁愛路２段167號1.2樓	高雄市	茄萣區	120.184847	22.897553
全聯	梓官中崙	(82641)高雄市梓官區中崙路231號	高雄市	梓官區	120.269436	22.761028
全聯	梓官中正	(82646)高雄市梓官區中正路75號	高雄市	梓官區	120.257446	22.727463
全聯	鳥松本舘	(83347)高雄市鳥松區本舘路207、209號	高雄市	鳥松區	120.342094	22.650824
全聯	湖內保生	(82947)高雄市湖內區保生路169號	高雄市	湖內區	120.219499	22.907040
全聯	高雄復興	高雄市新興區復興二路260號1樓	高雄市	新興區	120.309407	22.622798
全聯	高雄七賢	高雄市新興區七賢二路10號	高雄市	新興區	120.301476	22.634810
全聯	高雄林森	(80002)高雄市新興區林森一路230號	高雄市	新興區	120.305010	22.633818
全聯	新興復興一	(80053)高雄市新興區復興一路80號	高雄市	新興區	120.308639	22.633516
全聯	右昌	(81157)高雄市楠梓區德民路838號	高雄市	楠梓區	120.290633	22.721633
全聯	左營海總	(81143)高雄市楠梓區軍校路800號	高雄市	楠梓區	120.293309	22.710664
全聯	高雄德賢	(81154)高雄市楠梓區德賢路479號1樓	高雄市	楠梓區	120.302088	22.726051
全聯	高雄興楠	(81163)高雄市楠梓區興楠路72號	高雄市	楠梓區	120.337967	22.731638
全聯	高雄中泰	(81149)高雄市楠梓區右昌街543號	高雄市	楠梓區	120.286338	22.717295
全聯	高雄藍昌	(81148)高雄市楠梓區藍昌路417號	高雄市	楠梓區	120.291832	22.728996
全聯	楠梓土庫	(81164)高雄市楠梓區土庫三路55、57號	高雄市	楠梓區	120.329756	22.737720
全聯	楠梓興楠	(81167)高雄市楠梓區興楠路260號	高雄市	楠梓區	120.333051	22.730478
全聯	楠梓德中	(81148)高雄市楠梓區德中路326號	高雄市	楠梓區	120.273683	22.728562
全聯	高雄路竹	(82146)高雄市路竹區中正路180號	高雄市	路竹區	120.263877	22.854287
全聯	路竹國昌	(82150)高雄市路竹區國昌路26、28號	高雄市	路竹區	120.260330	22.854606
全聯	鼓山	高雄市鼓山區銘傳路61號	高雄市	鼓山區	120.284310	22.665161
全聯	高雄明倫	(80468)高雄市鼓山區明倫路466號	高雄市	鼓山區	120.298081	22.663717
全聯	高雄美明	(80457)高雄市鼓山區美明路116、118號1樓	高雄市	鼓山區	120.288555	22.665764
全聯	高雄華夏	(80454)高雄市鼓山區華夏路176號	高雄市	鼓山區	120.295992	22.668769
全聯	鼓山明誠	(80453)高雄市鼓山區明誠三路463號	高雄市	鼓山區	120.301291	22.660846
全聯	鼓山新疆	(80472)高雄市鼓山區新疆路91號	高雄市	鼓山區	120.278362	22.656351
全聯	鼓山美術南	(80460)高雄市鼓山區美術南三路231、233號	高雄市	鼓山區	120.286067	22.653192
全聯	鼓山南屏	(80453)高雄市鼓山區南屏路556。558號	高雄市	鼓山區	120.299860	22.663337
全聯	旗山	(84241)高雄市旗山區延平一路453號	高雄市	旗山區	120.483548	22.890209
全聯	旗山中華	(84241)高雄市旗山區中華路31.33號	高雄市	旗山區	120.484031	22.880140
全聯	旗津中洲	(80545)高雄市旗津區中洲二路179-11號	高雄市	旗津區	120.288852	22.586282
全聯	鳳山青年	(83067)高雄市鳳山區青年路２段261號	高雄市	鳳山區	120.350680	22.638675
全聯	鳳山經武	(83041)高雄市鳳山區經武路375.377號	高雄市	鳳山區	120.364054	22.640366
全聯	鳳山信義	(83064)高雄市鳳山區信義街73號	高雄市	鳳山區	120.353984	22.627052
全聯	鳳山五福	(83087)高雄市鳳山區五福二路32號	高雄市	鳳山區	120.324681	22.588993
全聯	鳳山誠德	(83051)高雄市鳳山區誠德街133號	高雄市	鳳山區	120.373963	22.624973
全聯	鳳山青年二	(83053)高雄市鳳山區青年路２段421號	高雄市	鳳山區	120.350958	22.644269
全聯	鳳山保泰	(83083)高雄市鳳山區保泰路376號	高雄市	鳳山區	120.335151	22.603171
全聯	鳳山五甲	高雄市鳳山區錦田路189號	高雄市	鳳山區	120.331102	22.595036
全聯	鳳山平等	(83070)高雄市鳳山區平等路50號	高雄市	鳳山區	120.352251	22.624724
全聯	鳳山中山	(83065)高雄市鳳山區中山路66號	高雄市	鳳山區	120.359786	22.621926
全聯	鳳山瑞隆	高雄市鳳山區瑞隆東路50號	高雄市	鳳山區	120.344946	22.606562
全聯	鳳山光復	(83063)高雄市鳳山區光復路107號	高雄市	鳳山區	120.359368	22.628971
全聯	鳳山頂豐	(83093)高雄市鳳山區頂豐街21、23號	高雄市	鳳山區	120.356321	22.585805
全聯	鳳山博愛	(83051)高雄市鳳山區博愛路361號	高雄市	鳳山區	120.367689	22.630940
全聯	鳳山建國	(83041)高雄市鳳山區建國路２段90號	高雄市	鳳山區	120.361257	22.635848
全聯	鳳山保南	(83093)高雄市鳳山區保南二路207、209、211號	高雄市	鳳山區	120.349996	22.596103
全聯	鳳山國泰	(83061)高雄市鳳山區國泰路１段2號、6號	高雄市	鳳山區	120.362205	22.614931
全聯	鳳山南和一	(83094)高雄市鳳山區南和一路47號	高雄市	鳳山區	120.337898	22.591047
全聯	鳳山武營	(83080)高雄市鳳山區武營路236號	高雄市	鳳山區	120.337469	22.611280
全聯	鳳山海洋一	(83078)高雄市鳳山區海洋一路35。37。39號	高雄市	鳳山區	120.342573	22.609907
全聯	鳳山鳳北	(83041)高雄市鳳山區鳳北路177號	高雄市	鳳山區	120.367566	22.644410
全聯	鳳山供售站	(83061)高雄市鳳山區國泰路１段6號1樓	高雄市	鳳山區	120.360015	22.614380
全聯	橋頭隆豐	(82543)高雄市橋頭區隆豐路137號	高雄市	橋頭區	120.306377	22.755202
全聯	燕巢中民	(82447)高雄市燕巢區中民路709號之3	高雄市	燕巢區	120.358712	22.792749
全聯	彌陀中正東	(82744)高雄市彌陀區中正東路501。503號	高雄市	彌陀區	120.247665	22.788570
全聯	鹽埕壽星	(80341)高雄市鹽埕區七賢三路243、247號1樓	高雄市	鹽埕區	120.284097	22.630159
全聯	鹽埕七賢三	(80341)高雄市鹽埕區七賢三路6號	高雄市	鹽埕區	120.279774	22.621669
全聯	七堵	(20644)基隆市七堵區南興路106號	基隆市	七堵區	121.712197	25.096554
全聯	基隆百福	(20649)基隆市七堵區百六街116號	基隆市	七堵區	121.697608	25.084880
全聯	基隆百三	(20648)基隆市七堵區百三街107號	基隆市	七堵區	121.697729	25.081923
全聯	基隆復興	(20348)基隆市中山區復興路259巷9號1樓	基隆市	中山區	121.725791	25.149907
全聯	基隆西定	(20349)基隆市中山區西定路230號	基隆市	中山區	121.732146	25.137479
全聯	基隆義二	(20241)基隆市中正區信四路11號	基隆市	中正區	121.746444	25.133309
全聯	基隆中正	(20248)基隆市中正區中正路389號	基隆市	中正區	121.765326	25.150544
全聯	基隆新豐	(20251)基隆市中正區新豐街262號	基隆市	中正區	121.787907	25.136383
全聯	基隆海大	(20248)基隆市中正區中正路611號1-2樓及B1	基隆市	中正區	121.771310	25.151517
全聯	基隆精一	(20044)基隆市仁愛區精一路15號1樓	基隆市	仁愛區	121.741459	25.126471
全聯	基隆光華	(20044)基隆市仁愛區成功一路133巷1號	基隆市	仁愛區	121.736386	25.128453
全聯	基隆仁三	基隆市仁愛區仁三路11號	基隆市	仁愛區	121.744072	25.128011
全聯	基隆大武崙	(20445)基隆市安樂區基金一路135巷21弄2號之1	基隆市	安樂區	121.709637	25.138892
全聯	基隆武隆	(20446)基隆市安樂區武隆街65號	基隆市	安樂區	121.695687	25.155477
全聯	基隆樂利	(20447)基隆市安樂區樂利三街146.148號	基隆市	安樂區	121.716481	25.126388
全聯	基隆麥金	(20448)基隆市安樂區麥金路201號B1之2、之3、之5	基隆市	安樂區	121.721069	25.121719
全聯	基隆信義	(20148)基隆市信義區義六路５號	基隆市	信義區	121.750832	25.129050
全聯	基隆孝東	(20142)基隆市信義區孝東路92號	基隆市	信義區	121.779329	25.128362
全聯	基隆東明	基隆市信義區東明路177號	基隆市	信義區	121.759370	25.127647
全聯	基隆暖暖	(20544)基隆市暖暖區暖暖街246巷166號	基隆市	暖暖區	121.735345	25.099697
全聯	基隆源遠	(20543)基隆市暖暖區源遠路341-1號B1	基隆市	暖暖區	121.758220	25.099649
全聯	二崙中正	(64941)雲林縣二崙鄉中正路64巷9號	雲林縣	二崙鄉	120.411064	23.771058
全聯	雲林口湖	(65344)雲林縣口湖鄉中正路一段187號	雲林縣	口湖鄉	120.183102	23.584056
全聯	土庫馬光	(63355)雲林縣土庫鎮和平街18、18-1號	雲林縣	土庫鎮	120.357063	23.703881
全聯	土庫中華	(63342)雲林縣土庫鎮中華路6號	雲林縣	土庫鎮	120.388719	23.672430
全聯	雲林大埤	(63146)雲林縣大埤鄉中正路27號	雲林縣	大埤鄉	120.430382	23.644834
全聯	元長元南	(65545)雲林縣元長鄉元南路57、57-1號	雲林縣	元長鄉	120.313012	23.647116
全聯	斗六上海	雲林縣斗六市杭州街18號	雲林縣	斗六市	120.541848	23.715030
全聯	斗六西平	(64049)雲林縣斗六市西平路248號	雲林縣	斗六市	120.535357	23.712245
全聯	斗六	雲林縣斗六市林頭里莊敬路43號	雲林縣	斗六市	120.550591	23.703842
全聯	斗六公正	(64045)雲林縣斗六市公正街11號	雲林縣	斗六市	120.543716	23.709901
全聯	斗六民生	雲林縣斗六市南興街41號	雲林縣	斗六市	120.537266	23.704001
全聯	斗六鎮南	(64072)雲林縣斗六市鎮南路246號	雲林縣	斗六市	120.541527	23.698589
全聯	斗六文化	(64047)雲林縣斗六市文化路65號	雲林縣	斗六市	120.548129	23.711183
全聯	斗南	雲林縣斗南鎮中山路32巷6號	雲林縣	斗南鎮	120.480356	23.674151
全聯	斗南長安	(63052)雲林縣斗南鎮長安路１段177號	雲林縣	斗南鎮	120.473750	23.674132
全聯	北港民享	(65145)雲林縣北港鎮民享路9號	雲林縣	北港鎮	120.302015	23.575126
全聯	北港	雲林縣北港鎮華勝路171號	雲林縣	北港鎮	120.298178	23.577441
全聯	古坑文淵	(64650)雲林縣古坑鄉文淵路160、162號	雲林縣	古坑鄉	120.564238	23.647776
全聯	雲林四湖	(65442)雲林縣四湖鄉關聖路66號	雲林縣	四湖鄉	120.227715	23.638799
全聯	西螺	雲林縣西螺鎮光復西路117號	雲林縣	西螺鎮	120.461090	23.796668
全聯	西螺福來	(64848)雲林縣西螺鎮中山路500號	雲林縣	西螺鎮	120.450449	23.798825
全聯	雲林東勢	(63575)雲林縣東勢鄉內環東路2.6號	雲林縣	東勢鄉	120.256157	23.677219
全聯	林內中正	(64341)雲林縣林內鄉中正路400號	雲林縣	林內鄉	120.612310	23.754938
全聯	虎尾林森	(63256)雲林縣虎尾鎮林森路２段434號	雲林縣	虎尾鎮	120.424530	23.698948
全聯	虎尾	(63244)雲林縣虎尾鎮光復路503號之8	雲林縣	虎尾鎮	120.433160	23.711342
全聯	虎尾光復	(63242)雲林縣虎尾鎮光復路180號	雲林縣	虎尾鎮	120.444466	23.709830
全聯	虎尾中正	(63246)雲林縣虎尾鎮林森路２段23號	雲林縣	虎尾鎮	120.431129	23.707542
全聯	崙背中山	雲林縣崙背鄉中山路200號	雲林縣	崙背鄉	120.356029	23.760633
全聯	雲林麥寮	雲林縣麥寮鄉中山路436號	雲林縣	麥寮鄉	120.250348	23.750559
全聯	麥寮橋頭	(63864)雲林縣麥寮鄉橋頭160號	雲林縣	麥寮鄉	120.273015	23.794056
全聯	麥寮中山	(63847)雲林縣麥寮鄉中山路119-2號	雲林縣	麥寮鄉	120.257821	23.748752
全聯	莿桐和平	(64741)雲林縣莿桐鄉和平路36-3號	雲林縣	莿桐鄉	120.502425	23.760225
全聯	台西文化	(63652)雲林縣臺西鄉文化路230號	雲林縣	臺西鄉	120.195891	23.699629
全聯	雲林褒忠	(63441)雲林縣褒忠鄉中正路51號	雲林縣	褒忠鄉	120.316565	23.695941
全聯	八里中庄	(24944)新北市八里區中山路１段109號	新北市	八里區	121.414198	25.159687
全聯	三芝中興	(25241)新北市三芝區中興街２段71號	新北市	三芝區	121.498552	25.255969
全聯	三重天台	(24142)新北市三重區重新路２段78號之21	新北市	三重區	121.497815	25.061845
全聯	三重	新北市三重區重安街70號光明市場2樓	新北市	三重區	121.491854	25.057052
全聯	三重介壽	(24146)新北市三重區龍門路6-1號	新北市	三重區	121.494702	25.071241
全聯	三重中正	新北市三重區中正北路592號	新北市	三重區	121.469859	25.072082
全聯	三重仁愛	新北市三重區仁愛街278號	新北市	三重區	121.492466	25.079036
全聯	三重三和	(24149)新北市三重區三和路２段139號	新北市	三重區	121.498438	25.069373
全聯	三重力行	(24162)新北市三重區力行路１段54號	新北市	三重區	121.484955	25.068832
全聯	三重中正北	(24162)新北市三重區中正北路70號	新北市	三重區	121.486328	25.064533
全聯	三重永福	(24154)新北市三重區三和路４段380號B1	新北市	三重區	121.482647	25.078775
全聯	三重捷運	(24161)新北市三重區捷運路39.41號	新北市	三重區	121.484223	25.055862
全聯	三重仁義	(24151)新北市三重區仁義街95號	新北市	三重區	121.498480	25.079121
全聯	三重中正南	(24143)新北市三重區中正南路248、248-2號B1	新北市	三重區	121.493485	25.053713
全聯	三重集美	(24144)新北市三重區集美街18-7號	新北市	三重區	121.489757	25.055196
全聯	三峽安溪	(23742)新北市三峽區中華路95號一樓	新北市	三峽區	121.371681	24.929304
全聯	三峽光明	(23742)新北市三峽區光明路59.61.63號	新北市	三峽區	121.375517	24.928861
全聯	三峽學成	(23741)新北市三峽區學成路97.99號	新北市	三峽區	121.373435	24.941544
全聯	三峽和平	(23741)新北市三峽區和平街65號B1	新北市	三峽區	121.370125	24.936840
全聯	三峽中正	(23742)新北市三峽區中正路２段109、111號	新北市	三峽區	121.366357	24.916647
全聯	金城	(23643)新北市土城區金城路３段12號B1、B1-1，14號B1	新北市	土城區	121.464905	24.985948
全聯	土城裕民	(23663)新北市土城區裕民路116號B1	新北市	土城區	121.451112	24.986444
全聯	土城海山	(23659)新北市土城區明德路２段60號	新北市	土城區	121.448678	24.983593
全聯	土城學府	(23658)新北市土城區學府路１段21號	新北市	土城區	121.458746	24.988374
全聯	土城立仁	(23652)新北市土城區立仁街38號1樓、45號B1	新北市	土城區	121.460469	24.982833
全聯	土城中州	(23679)新北市土城區中州路28巷30號1樓	新北市	土城區	121.415292	24.958065
全聯	中和新生	新北市中和區新生街255、257號	新北市	中和區	121.483932	24.998365
全聯	中和秀朗	(23581)新北市中和區秀朗路３段175巷2號	新北市	中和區	121.524348	24.990878
全聯	南華	(23563)新北市中和區南華路２７號Ｂ１	新北市	中和區	121.503036	24.996006
全聯	中和光華	(23558)新北市中和區光華街31巷2號1樓	新北市	中和區	121.505183	25.003998
全聯	中和中山	(23546)新北市中和區中山路３段35-2號	新北市	中和區	121.478706	25.005566
全聯	中和景平	(23559)新北市中和區景平路541號B1、543號1樓、B1	新北市	中和區	121.498613	24.999307
全聯	中和大勇	(23579)新北市中和區大勇街78號	新北市	中和區	121.518393	24.994826
全聯	中和福祥	(23556)新北市中和區福祥路72號	新北市	中和區	121.499306	25.005302
全聯	中和民德	(23542)新北市中和區民德路187號	新北市	中和區	121.468600	24.999266
全聯	中和南山	(23571)新北市中和區南山路146巷1號1樓	新北市	中和區	121.504133	24.992174
全聯	中和南勢角	(23566)新北市中和區捷運路29.31.33.35號	新北市	中和區	121.509452	24.989531
全聯	中和華夏	(23568)新北市中和區工專路26號2樓、28、30號1-2樓	新北市	中和區	121.507186	24.980986
全聯	中和安邦	(23559)新北市中和區安邦街18號1-2樓	新北市	中和區	121.496030	24.997847
全聯	中和華新	(23567)新北市中和區華新街26-1號1樓、26-2號B1	新北市	中和區	121.507568	24.984791
全聯	中和中正	(23562)新北市中和區中正路80號1樓	新北市	中和區	121.500178	24.993899
全聯	中和宜安	(23576)新北市中和區安平路109號	新北市	中和區	121.511714	24.997601
全聯	中和景新	新北市中和區景新街516號地下2樓	新北市	中和區	121.514024	24.986843
全聯	中和民樂	新北市中和區民樂路3號	新北市	中和區	121.481838	25.001213
全聯	五股德音	(24870)新北市五股區成泰路１段235號之13	新北市	五股區	121.436404	25.079866
全聯	五股工商	(24856)新北市五股區工商路112號	新北市	五股區	121.437123	25.085580
全聯	五股成泰	(24841)新北市五股區成泰路3段379、381、383、385號	新北市	五股區	121.449153	25.096437
全聯	永和永安	(23448)新北市永和區中正路742號	新北市	永和區	121.515333	25.010384
全聯	永和福和	(23450)新北市永和區福和路353號	新北市	永和區	121.514689	25.007274
全聯	永和永福	(23449)新北市永和區福和路67.69號	新北市	永和區	121.522709	25.007724
全聯	永和竹林	(23441)新北市永和區竹林路73-1號	新北市	永和區	121.518955	25.013139
全聯	永和成功	(23452)新北市永和區成功路２段56號B1	新北市	永和區	121.526595	24.999931
全聯	永安捷運	(23447)新北市永和區中和路489號B1	新北市	永和區	121.510450	25.002108
全聯	永和中正	(23454)新北市永和區中正路247,249號1樓	新北市	永和區	121.517609	24.999988
全聯	永和警光	(23448)新北市永和區竹林路182號	新北市	永和區	121.520465	25.009762
全聯	汐止龍安	(22167)新北市汐止區龍安路28巷6號	新北市	汐止區	121.655082	25.064555
全聯	汐止建成	(22174)新北市汐止區建成路58號	新北市	汐止區	121.663445	25.073196
全聯	汐止忠孝	新北市汐止區忠孝東路429號	新北市	汐止區	121.665836	25.071880
全聯	汐止康寧	(22157)新北市汐止區康寧街430號1樓	新北市	汐止區	121.631141	25.067699
全聯	汐止中興	(22158)新北市汐止區中興路168號B1	新北市	汐止區	121.631877	25.065643
全聯	汐止莊敬	(22179)新北市汐止區莊敬街130號1樓	新北市	汐止區	121.654369	25.061071
全聯	汐止大同	(22103)新北市汐止區大同路３段190號1樓	新北市	汐止區	121.674852	25.073718
全聯	板橋新埔	(22047)新北市板橋區光武街61號	新北市	板橋區	121.467443	25.025645
全聯	板橋溪洲	(22071)新北市板橋區金門街295號B1	新北市	板橋區	121.430326	24.986649
全聯	板橋江子翠	(22043)新北市板橋區雙十路２段209號B1	新北市	板橋區	121.472950	25.029198
全聯	大觀	(22072)新北市板橋區大觀路３段236號B1	新北市	板橋區	121.429422	24.992483
全聯	板橋文聖	(22044)新北市板橋區文聖街73號1+2樓	新北市	板橋區	121.477364	25.030531
全聯	雨農	(22049)新北市板橋區雨農路27巷2號	新北市	板橋區	121.461322	25.023918
全聯	板橋國慶	(22062)新北市板橋區重慶路247號1樓	新北市	板橋區	121.463864	25.000615
全聯	板橋中正	(22054)新北市板橋區中正路1巷28號	新北市	板橋區	121.454742	25.011487
全聯	板橋中山	(22068)新北市板橋區中山路２段326號	新北市	板橋區	121.481017	25.019626
全聯	板橋江寧	(22046)新北市板橋區江寧路３段29號1樓	新北市	板橋區	121.471093	25.031754
全聯	板橋新生	(22052)新北市板橋區中正路330-1號1	新北市	板橋區	121.454539	25.022021
全聯	板橋公館	(22050)新北市板橋區文化路１段101巷13號B1	新北市	板橋區	121.460702	25.014516
全聯	板橋莒光	(22042)新北市板橋區莒光路219號	新北市	板橋區	121.474295	25.022681
全聯	板橋板新	(22065)新北市板橋區中山路１段252號	新北市	板橋區	121.471419	25.014457
全聯	板橋合宜	(22058)新北市板橋區合宜路69號1樓	新北市	板橋區	121.447012	24.997584
全聯	板橋區運	(22065)新北市板橋區區運路32號B1	新北市	板橋區	121.465671	25.009870
全聯	板橋溪城	(22072)新北市板橋區溪城路79號1樓	新北市	板橋區	121.426865	24.983810
全聯	板橋英士	(22049)新北市板橋區雨農路58號B1	新北市	板橋區	121.460867	25.024218
全聯	新埔捷運	(22055)新北市板橋區文化路１段360號	新北市	板橋區	121.469787	25.023575
全聯	亞東捷運	(22060)新北市板橋區南雅南路２段122-23號1樓	新北市	板橋區	121.451996	24.997454
全聯	板橋國光	新北市板橋區國光路57號地下1樓	新北市	板橋區	121.458585	25.018012
全聯	板橋重慶	(22063)新北市板橋區重慶路66號B1	新北市	板橋區	121.461556	25.006542
全聯	板橋長江	(22047)新北市板橋區民生路３段323號B1之4、B1之5	新北市	板橋區	121.462515	25.031018
全聯	林口民有	(24461)新北市林口區民有街148號	新北市	林口區	121.372778	25.076180
全聯	林口麗都	(24448)新北市林口區文化二路１段106.108號	新北市	林口區	121.367425	25.070246
全聯	林口忠孝	(24447)新北市林口區忠孝路32、36號1樓	新北市	林口區	121.364551	25.075290
全聯	林口信義	(24459)新北市林口區文化三路２段175、177號	新北市	林口區	121.375699	25.082280
全聯	林口仁愛	(24449)新北市林口區仁愛路２段196-1、196-2、198、198-1號	新北市	林口區	121.379734	25.073827
全聯	林口竹林	(24443)新北市林口區竹林路12號	新北市	林口區	121.387024	25.077277
全聯	北縣金山	(20845)新北市金山區中山路114號	新北市	金山區	121.639643	25.219700
全聯	泰山全興	新北市泰山區全興路101號	新北市	泰山區	121.433653	25.057187
全聯	泰山	新北市泰山區明志路三段87號	新北市	泰山區	121.425134	25.041314
全聯	泰山明志	(24343)新北市泰山區明志路１段21號	新北市	泰山區	121.433689	25.065746
全聯	泰山文程	(24349)新北市泰山區文程路15號	新北市	泰山區	121.428106	25.049430
全聯	貢寮延平	(22844)新北市貢寮區延平街86號1樓	新北市	貢寮區	121.925100	25.057675
全聯	淡水竹圍	新北市淡水區民族路31號地下室	新北市	淡水區	121.461244	25.136781
全聯	淡水博愛	(25147)新北市淡水區中正東路35巷22號1+B1F	新北市	淡水區	121.446654	25.168759
全聯	淡水學府	(25145)新北市淡水區學府路126號B1	新北市	淡水區	121.450375	25.172454
全聯	淡水中山	(25152)新北市淡水區中山北路２段102號	新北市	淡水區	121.444529	25.184479
全聯	淡水沙崙	(25155)新北市淡水區沙崙路50號	新北市	淡水區	121.422072	25.181650
全聯	淡水新春	(25166)新北市淡水區新春街140號B1	新北市	淡水區	121.441742	25.181655
全聯	淡水淡金	(25161)新北市淡水區淡金路8-1號	新北市	淡水區	121.457410	25.159712
全聯	淡水自強	(25162)新北市淡水區自強路106號1-2樓	新北市	淡水區	121.462190	25.129448
全聯	淡水淡大	新北市淡水區大忠街89號	新北市	淡水區	121.447039	25.177561
全聯	深坑平埔	新北市深坑區平埔街22巷8號	新北市	深坑區	121.615270	25.001158
全聯	新店三民	(23149)新北市新店區三民路42-1號	新北市	新店區	121.536120	24.971875
全聯	新店安康	新北市新店區安康路二段133號	新北市	新店區	121.512702	24.960679
全聯	新店北新	新北市新店區北新路二段252號地下室	新北市	新店區	121.543172	24.978015
全聯	新店民族	新北市新店區民族路190號地下室	新北市	新店區	121.536319	24.975642
全聯	新店建國	新北市新店區建國路210號	新北市	新店區	121.537797	24.980957
全聯	新店北宜	(23152)新北市新店區北宜路２段82-7號1樓	新北市	新店區	121.554537	24.953145
全聯	新店碧潭	(23147)新北市新店區北新路１段181.183號	新北市	新店區	121.540010	24.964457
全聯	新店中央	(23150)新北市新店區中央五街60號B1	新北市	新店區	121.527220	24.975512
全聯	新店捷運	(23152)新北市新店區北宜路１段16號B1	新北市	新店區	121.537943	24.957446
全聯	新店大鵬	(23150)新北市新店區中正路700巷1號B1	新北市	新店區	121.534014	24.991283
全聯	新店安德	(23154)新北市新店區安康路２段120號1樓	新北市	新店區	121.512964	24.962864
全聯	新店中正	(23146)新北市新店區中正路199號1樓	新北市	新店區	121.540314	24.972405
全聯	新店惠國	(23146)新北市新店區中正路12號1樓	新北市	新店區	121.545458	24.969609
全聯	新莊鴻金寶	(24267)新北市新莊區民安路188巷5號之2	新北市	新莊區	121.424711	25.023244
全聯	新莊	(24248)新北市新莊區中和街１８８號地下室	新北市	新莊區	121.447558	25.049873
全聯	中平	新北市新莊區中平路82巷27號	新北市	新莊區	121.446064	25.044972
全聯	中港	新北市新莊區中華路二段1號地下1樓	新北市	新莊區	121.453190	25.044776
全聯	新莊化成	新北市新莊區化成路71號	新北市	新莊區	121.465284	25.046096
全聯	新莊新泰	(24241)新北市新莊區新泰路85號地下樓	新北市	新莊區	121.449116	25.034578
全聯	新莊後港	新北市新莊區後港一路68號	新北市	新莊區	121.426732	25.026446
全聯	新莊民安	(24264)新北市新莊區民安西路309號	新北市	新莊區	121.427048	25.011484
全聯	新莊龍安	(24257)新北市新莊區中正路893巷2之1號	新北市	新莊區	121.413257	25.020945
全聯	新莊中原	(24252)新北市新莊區中原東路192.196號1-2樓	新北市	新莊區	121.461129	25.054505
全聯	新莊輔大	(24205)新北市新莊區中正路510號(輔大焯炤館1-2樓)	新北市	新莊區	121.434579	25.032783
全聯	新莊民安西	(24264)新北市新莊區民安西路135。137號	新北市	新莊區	121.426519	25.017556
全聯	新莊豐年	(24243)新北市新莊區豐年街21號1樓	新北市	新莊區	121.446425	25.032602
全聯	新莊中榮	(24247)新北市新莊區中港路526號1樓	新北市	新莊區	121.451620	25.052265
全聯	新莊建中	(24244)新北市新莊區建中街62號1樓	新北市	新莊區	121.448078	25.037339
全聯	新莊公園	(24244)新北市新莊區公園路129號	新北市	新莊區	121.457196	25.040784
全聯	新莊建國	(24257)新北市新莊區建國一路53號	新北市	新莊區	121.434499	25.030492
全聯	新莊幸福	(24247)新北市新莊區幸福路501號	新北市	新莊區	121.456162	25.049231
全聯	瑞芳中正	新北市瑞芳區中正路81號	新北市	瑞芳區	121.805256	25.107628
全聯	萬里瑪鋉	(20745)新北市萬里區美崙12號	新北市	萬里區	121.687334	25.183993
全聯	樹林佳園	(23877)新北市樹林區佳園路１段41巷1號	新北市	樹林區	121.393470	24.970995
全聯	樹林保安	(23841)新北市樹林區保安街１段183號	新北市	樹林區	121.421252	24.995699
全聯	三峽北大	(23853)新北市樹林區學勤路209.211號	新北市	樹林區	121.377824	24.947747
全聯	樹林八德	(23857)新北市樹林區八德街331。333號	新北市	樹林區	121.419817	24.974746
全聯	樹林樹德	(23843)新北市樹林區樹德街35號	新北市	樹林區	121.421514	24.991608
全聯	樹林中山	(23844)新北市樹林區中山路１段29-1.31號	新北市	樹林區	121.424367	24.992947
全聯	蘆洲民族	新北市蘆洲區水湳街74號1樓	新北市	蘆洲區	121.470396	25.090012
全聯	蘆洲永樂	(24767)新北市蘆洲區永樂街38巷57弄2號	新北市	蘆洲區	121.458369	25.090204
全聯	蘆洲長安	新北市蘆洲區長安街232號	新北市	蘆洲區	121.457814	25.085624
全聯	蘆洲中山	(24753)新北市蘆洲區中山一路228號	新北市	蘆洲區	121.472918	25.080402
全聯	蘆洲中華	(24764)新北市蘆洲區長安街96號1樓	新北市	蘆洲區	121.461992	25.080636
全聯	蘆洲民權	(24741)新北市蘆洲區民族路31號1樓	新北市	蘆洲區	121.477763	25.085005
全聯	蘆洲重陽	新北市蘆洲區重陽街46號1樓	新北市	蘆洲區	121.481637	25.082618
全聯	蘆洲九芎	(24750)新北市蘆洲區九芎街90巷6號	新北市	蘆洲區	121.465728	25.080306
全聯	蘆洲忠孝	新北市蘆洲區保和里15鄰忠孝路23號	新北市	蘆洲區	121.471451	25.085391
全聯	鶯歌建國	新北市鶯歌區建國路85號	新北市	鶯歌區	121.353299	24.954093
全聯	新竹南寮	(30058)新竹市北區西濱路１段448號	新竹市	北區	120.932916	24.841010
全聯	新竹武陵	(30053)新竹市北區武陵路157-1號	新竹市	北區	120.967757	24.820583
全聯	新竹西大	(30049)新竹市北區西大路594號	新竹市	北區	120.961961	24.806932
全聯	新竹延平	(30056)新竹市北區延平路１段214巷10、12號1樓	新竹市	北區	120.954037	24.805454
全聯	新竹城北	(30051)新竹市北區中正路245號1樓	新竹市	北區	120.963943	24.812486
全聯	新竹中正	(30048)新竹市北區中正路411號1樓	新竹市	北區	120.960177	24.815459
全聯	新竹林森	(30042)新竹市東區林森路231號	新竹市	東區	120.963311	24.798299
全聯	新竹南大	(30063)新竹市東區南大路421號	新竹市	東區	120.967534	24.796167
全聯	新竹自由	(30041)新竹市東區自由路95巷38弄1號	新竹市	東區	120.978757	24.812704
全聯	新竹關東	(30074)新竹市東區光復路１段250號	新竹市	東區	121.020865	24.782341
全聯	新竹龍山	(30072)新竹市東區龍山西路100.102號	新竹市	東區	121.010187	24.790569
全聯	新竹食品	(30062)新竹市東區食品路305之1號	新竹市	東區	120.972854	24.794832
全聯	新竹關新西	(30072)新竹市東區關新西街163.165號	新竹市	東區	121.019839	24.789250
全聯	新竹振興	(30063)新竹市東區振興路116。118號	新竹市	東區	120.960748	24.795450
全聯	新竹科學園	(30073)新竹市東區科學園路162巷36號1樓	新竹市	東區	121.010690	24.782407
全聯	新竹金山	(30080)新竹市東區金山七街20號1-3樓	新竹市	東區	121.020148	24.778415
全聯	新竹忠孝	(30069)新竹市東區忠孝路74號	新竹市	東區	120.991316	24.802786
全聯	新竹香北	(30093)新竹市香山區香北路58號	新竹市	香山區	120.928099	24.792346
全聯	新竹牛埔	(30091)新竹市香山區牛埔東路247號	新竹市	香山區	120.944097	24.796153
全聯	新竹中華	(30094)新竹市香山區中華路６段227號	新竹市	香山區	120.907768	24.744035
全聯	竹北勝利	新竹縣竹北市勝利六街36號	新竹縣	竹北市	121.025573	24.825145
全聯	竹北中正東	(30241)新竹縣竹北市中正東路136號	新竹縣	竹北市	121.016866	24.835181
全聯	竹北中華	(30252)新竹縣竹北市中華路535號	新竹縣	竹北市	121.005441	24.843114
全聯	竹北隘口	(30274)新竹縣竹北市隘口六街57號	新竹縣	竹北市	121.033636	24.803359
全聯	竹北自強	(30264)新竹縣竹北市自強五路60號	新竹縣	竹北市	121.023503	24.819206
全聯	竹北自強南	(30264)新竹縣竹北市自強南路193.197號	新竹縣	竹北市	121.023856	24.813804
全聯	竹北十興	(30264)新竹縣竹北市莊敬七街118號	新竹縣	竹北市	121.031249	24.825446
全聯	竹北嘉豐	(30273)新竹縣竹北市嘉豐十一路１段20號	新竹縣	竹北市	121.037171	24.811121
全聯	竹北民權	新竹縣竹北市民權街40巷2號	新竹縣	竹北市	121.012261	24.832988
全聯	竹北中正西	(30284)新竹縣竹北市中正西路49號	新竹縣	竹北市	121.001726	24.840258
全聯	竹北莊敬南	(30264)新竹縣竹北市莊敬南路125、127、129、131號	新竹縣	竹北市	121.020074	24.815993
全聯	竹北光明	(30264)新竹縣竹北市光明六路東１段223、225號	新竹縣	竹北市	121.025937	24.821189
全聯	竹北文興	(30272)新竹縣竹北市文興路１段257號	新竹縣	竹北市	121.031407	24.809240
全聯	竹北縣政	(30268)新竹縣竹北市縣政二路189號	新竹縣	竹北市	121.018223	24.831759
全聯	新竹竹東	新竹縣竹東鎮仁愛路226號	新竹縣	竹東鎮	121.090783	24.735248
全聯	竹東北興	(31042)新竹縣竹東鎮北興路１段493、495號	新竹縣	竹東鎮	121.097310	24.734719
全聯	芎林文德	(30745)新竹縣芎林鄉文德路38、40號	新竹縣	芎林鄉	121.076548	24.776694
全聯	湖口中正	(30342)新竹縣湖口鄉中正路１段192號	新竹縣	湖口鄉	121.047291	24.899028
全聯	湖口民富	(30353)新竹縣湖口鄉民富街26號	新竹縣	湖口鄉	121.013103	24.871056
全聯	湖口和愛	(30341)新竹縣湖口鄉和愛路32號	新竹縣	湖口鄉	121.047545	24.904169
全聯	湖口中山	(30345)新竹縣湖口鄉中山路１段726、728號	新竹縣	湖口鄉	121.042974	24.897563
全聯	湖口供售站	(30350)新竹縣湖口鄉勝利路２段90-1號2樓	新竹縣	湖口鄉	121.026351	24.862800
全聯	新埔中正	(30595)新竹縣新埔鎮中正路137、139號	新竹縣	新埔鎮	121.082897	24.826872
全聯	新豐振興	(30441)新竹縣新豐鄉振興街7號	新竹縣	新豐鄉	120.986517	24.903288
全聯	新豐	新竹縣新豐鄉學府路131號	新竹縣	新豐鄉	120.996646	24.871251
全聯	新豐文昌	(30443)新竹縣新豐鄉文昌街62號	新竹縣	新豐鄉	120.997472	24.873998
全聯	關西北平	(30642)新竹縣關西鎮北平路463、465號	新竹縣	關西鎮	121.171475	24.794745
全聯	嘉義竹圍	(60085)嘉義市西區四維路368號	嘉義市	西區	120.427745	23.487513
全聯	嘉義友愛	(60083)嘉義市西區友愛路402號	嘉義市	西區	120.433727	23.487152
全聯	嘉義仁愛	(60045)嘉義市西區仁愛路335號1-2樓	嘉義市	西區	120.442233	23.474323
全聯	嘉義大統	(60089)嘉義市西區大統路171號	嘉義市	西區	120.425479	23.472458
全聯	嘉義南京	(60061)嘉義市西區南京路416號	嘉義市	西區	120.436308	23.464397
全聯	嘉義博愛	(60094)嘉義市西區博愛路１段261號1.2樓	嘉義市	西區	120.444345	23.487178
全聯	嘉義湖子內	(60053)嘉義市西區健康十三路169、171號	嘉義市	西區	120.445384	23.452259
全聯	嘉義興業西	(60059)嘉義市西區興業西路245號	嘉義市	西區	120.440325	23.467953
全聯	嘉義林森西	(60049)嘉義市西區林森西路398。400號	嘉義市	西區	120.444516	23.482052
全聯	吳鳳	(60063)嘉義市東區吳鳳南路529號	嘉義市	東區	120.457189	23.461101
全聯	嘉義東門	(60048)嘉義市東區和平路134-13號	嘉義市	東區	120.457489	23.478148
全聯	嘉義軍輝	(60065)嘉義市東區軍輝路266號	嘉義市	東區	120.457352	23.454275
全聯	嘉義民國	(60043)嘉義市東區民國路30號	嘉義市	東區	120.461065	23.47545
全聯	嘉義大雅	(60076)嘉義市東區大雅路２段555號	嘉義市	東區	120.469653	23.477664
全聯	嘉義忠孝北	(60080)嘉義市東區忠孝北街231.233號	嘉義市	東區	120.442795	23.516167
全聯	嘉義忠孝	(60080)嘉義市東區忠孝路436號	嘉義市	東區	120.453045	23.492077
全聯	嘉義興業二	(60057)嘉義市東區興業東路40號	嘉義市	東區	120.455441	23.469279
全聯	嘉義民權	(60044)嘉義市東區民權路177號	嘉義市	東區	120.459549	23.483647
全聯	大林忠孝	(62241)嘉義縣大林鎮忠孝路596號	嘉義縣	大林鎮	120.453514	23.605811
全聯	大林民生	(62251)嘉義縣大林鎮民生路369。371號	嘉義縣	大林鎮	120.461811	23.597085
全聯	嘉義中埔	(60663)嘉義縣中埔鄉司公廍73-1.73-2.73-3.73-4號	嘉義縣	中埔鄉	120.469390	23.451558
全聯	太保中興	(61251)嘉義縣太保市中興路１段609號	嘉義縣	太保市	120.376791	23.498385
全聯	水上柳林	(60853)嘉義縣水上鄉柳子林109之21號	嘉義縣	水上鄉	120.416498	23.436985
全聯	水上	嘉義縣水上鄉吳竹街135號	嘉義縣	水上鄉	120.402192	23.430805
全聯	布袋太平東	(62547)嘉義縣布袋鎮太平東路455、457號	嘉義縣	布袋鎮	120.168121	23.377445
全聯	民雄頭橋	嘉義縣民雄鄉福樂村埤角139號	嘉義縣	民雄鄉	120.440002	23.524257
全聯	民雄大學	(62144)嘉義縣民雄鄉大學路３段218.220.222號	嘉義縣	民雄鄉	120.434725	23.554875
全聯	民雄	嘉義縣民雄鄉復興路226號	嘉義縣	民雄鄉	120.426621	23.558598
全聯	朴子文化	(61341)嘉義縣朴子市文化北路18號	嘉義縣	朴子市	120.241527	23.464454
全聯	朴子嘉朴	(61363)嘉義縣朴子市嘉朴路西段9號	嘉義縣	朴子市	120.288634	23.460746
全聯	大同	嘉義縣朴子市大同路60號	嘉義縣	朴子市	120.244974	23.461377
全聯	朴子四維	(61347)嘉義縣朴子市大同路291號	嘉義縣	朴子市	120.237026	23.461433
全聯	竹崎	嘉義縣竹崎鄉中華路106號	嘉義縣	竹崎鄉	120.548055	23.520456
全聯	嘉義梅山	(60342)嘉義縣梅山鄉中山路332、332-5號	嘉義縣	梅山鄉	120.553973	23.585524
全聯	新港	嘉義縣新港鄉中山路72巷2之1號	嘉義縣	新港鄉	120.346390	23.554170
全聯	二水民生	(53042)彰化縣二水鄉民生路396、398號	彰化縣	二水鄉	120.613686	23.812471
全聯	二林	彰化縣二林鎮南光里大成路342號1樓	彰化縣	二林鎮	120.363861	23.894032
全聯	二林仁愛	(52662)彰化縣二林鎮仁愛路470號	彰化縣	二林鎮	120.368826	23.903819
全聯	二林斗苑	(52653)彰化縣二林鎮斗苑路４段396號	彰化縣	二林鎮	120.379024	23.899480
全聯	大村中正西	(51541)彰化縣大村鄉中正西路98、100號	彰化縣	大村鄉	120.558460	23.988910
全聯	北斗復興	彰化縣北斗鎮復興路353號1樓	彰化縣	北斗鎮	120.526656	23.879022
全聯	北斗斗苑	(52146)彰化縣北斗鎮斗苑路１段366號	彰化縣	北斗鎮	120.518925	23.873115
全聯	北斗斗中	(52144)彰化縣北斗鎮斗中路739號	彰化縣	北斗鎮	120.533721	23.870571
全聯	永靖中山	(51243)彰化縣永靖鄉永社路291號	彰化縣	永靖鄉	120.545854	23.916944
全聯	永靖新興	(51245)彰化縣永靖鄉新興路53號	彰化縣	永靖鄉	120.551850	23.925721
全聯	田中	彰化縣田中鎮中正路305號1樓	彰化縣	田中鎮	120.582003	23.858455
全聯	田中新福	(52041)彰化縣田中鎮福安路285號	彰化縣	田中鎮	120.587349	23.863474
全聯	竹塘	彰化縣竹塘鄉中興街57巷22號1樓	彰化縣	竹塘鄉	120.426334	23.858965
全聯	伸港	彰化縣伸港鄉新港路311號1樓	彰化縣	伸港鄉	120.486763	24.149083
全聯	秀水彰水	(50448)彰化縣秀水鄉彰水路２段751。753號	彰化縣	秀水鄉	120.498725	24.033440
全聯	道周	彰化縣和美鎮山梨里平安路115號1樓	彰化縣	和美鎮	120.492776	24.108515
全聯	和美愛民	彰化縣和美鎮仁化路150號1樓	彰化縣	和美鎮	120.498432	24.109463
全聯	和美糖友	(50856)彰化縣和美鎮糖友一街46號	彰化縣	和美鎮	120.533927	24.107362
全聯	和美德美	(50851)彰化縣和美鎮德美路551號	彰化縣	和美鎮	120.498069	24.117679
全聯	社頭民生	(51147)彰化縣社頭鄉民生路702號	彰化縣	社頭鄉	120.589078	23.896076
全聯	社頭中山	(51143)彰化縣社頭鄉中山路１段521號	彰化縣	社頭鄉	120.582998	23.895836
全聯	芬園	彰化縣芬園鄉芬草路二段252號	彰化縣	芬園鄉	120.630152	24.013742
全聯	花壇站前	(50341)彰化縣花壇鄉花壇街320號	彰化縣	花壇鄉	120.537705	24.025585
全聯	花壇彰員	(50350)彰化縣花壇鄉彰員路３段105、109號	彰化縣	花壇鄉	120.546230	24.044968
全聯	花壇學前	(50348)彰化縣花壇鄉學前路115、117號	彰化縣	花壇鄉	120.542741	24.026707
全聯	員林	林市三和里三民東街359號1樓	彰化縣	員林市	120.582454	23.960851
全聯	靜修	彰化縣員林市南平一街66號1樓	彰化縣	員林市	120.564721	23.965146
全聯	育英	(51054)彰化縣員林市育英路600號1樓	彰化縣	員林市	120.573859	23.969342
全聯	南昌	彰化縣員林市惠來里南昌路75號1樓	彰化縣	員林市	120.571566	23.954474
全聯	員林員集	(51063)彰化縣員林市員集路２段269.271號	彰化縣	員林市	120.575833	23.941925
全聯	員林浮圳	(51055)彰化縣員林市浮圳路２段135號	彰化縣	員林市	120.583084	23.967404
全聯	彰化埔心	(51344)彰化縣埔心鄉員鹿路２段600號	彰化縣	埔心鄉	120.537142	23.952148
全聯	埔心東明	(513)彰化縣埔心鄉員林大道７段133、135、137號	彰化縣	埔心鄉	120.562682	23.954611
全聯	彰化埤頭	(52341)彰化縣埤頭鄉斗苑西路179號	彰化縣	埤頭鄉	120.461105	23.891294
全聯	鹿港	彰化縣鹿港鎮復興路210號1樓	彰化縣	鹿港鎮	120.438298	24.054821
全聯	鹿港彰頂	(50543)彰化縣鹿港鎮頂草路１段25號	彰化縣	鹿港鎮	120.480379	24.086881
全聯	鹿港鹿草	(50544)彰化縣鹿港鎮鹿草路１段487巷11號	彰化縣	鹿港鎮	120.436651	24.066045
全聯	鹿港長安	(50547)彰化縣鹿港鎮長安路200號	彰化縣	鹿港鎮	120.443553	24.060772
全聯	彰化溪州	(52442)彰化縣溪州鄉忠孝路5號	彰化縣	溪州鄉	120.493531	23.849654
全聯	溪湖	彰化縣溪湖鎮大發路56號1樓	彰化縣	溪湖鎮	120.476208	23.963457
全聯	溪湖平和	彰化縣溪湖鎮平和街184號1樓	彰化縣	溪湖鎮	120.479719	23.956560
全聯	彰安	彰化縣彰化市中正路二段828號1樓	彰化縣	彰化市	120.534346	24.064550
全聯	三民	彰化縣彰化市三民路430號1樓	彰化縣	彰化市	120.548502	24.086609
全聯	長興	彰化縣彰化市光復路35號1樓	彰化縣	彰化市	120.544698	24.080812
全聯	彰化自強南	彰化縣彰化市自強南路589號1樓	彰化縣	彰化市	120.530448	24.078883
全聯	彰化進德	(50081)彰化縣彰化市進德路49巷35號	彰化縣	彰化市	120.557288	24.084387
全聯	彰化彰鹿	(50083)彰化縣彰化市彰鹿路90號	彰化縣	彰化市	120.517149	24.061771
全聯	彰化延平	(50073)彰化縣彰化市延平路261號	彰化縣	彰化市	120.543182	24.062315
全聯	彰化中興	(50050)彰化縣彰化市中興路187-1號	彰化縣	彰化市	120.543482	24.069745
全聯	彰化金馬	(50053)彰化縣彰化市金馬路２段553號	彰化縣	彰化市	120.538733	24.092872
全聯	彰化中正	(50048)彰化縣彰化市中正路２段623-1。623-2號	彰化縣	彰化市	120.536433	24.068280
全聯	彰化福興	(50647)彰化縣福興鄉沿海路５段363號	彰化縣	福興鄉	120.431301	24.050600
全聯	彰化員鹿	(50649)彰化縣福興鄉員鹿路２段88號	彰化縣	福興鄉	120.436069	24.037913
全聯	線西中正	(50741)彰化縣線西鄉中正路63號	彰化縣	線西鄉	120.461927	24.129933
全聯	大甲	臺中市大甲區復興路59號	臺中市	大甲區	120.620084	24.346303
全聯	大甲光明	(43746)臺中市大甲區光明路12號	臺中市	大甲區	120.625114	24.343778
全聯	大甲黎明	(43769)臺中市大甲區黎明路2之301號	臺中市	大甲區	120.658952	24.396820
全聯	大甲民生	(43746)臺中市大甲區民生路13號	臺中市	大甲區	120.626825	24.346505
全聯	大肚榮華	(43252)臺中市大肚區榮華街7號、9號	臺中市	大肚區	120.544816	24.155817
全聯	大肚	臺中市大肚區沙田路二段592號	臺中市	大肚區	120.545919	24.150057
全聯	遊園	(43250)臺中市大肚區遊園路２段216號	臺中市	大肚區	120.581204	24.174194
全聯	大肚中蔗	(43248)臺中市大肚區中蔗路1-16。1-17號	臺中市	大肚區	120.579345	24.168726
全聯	大里仁化	(41282)臺中市大里區仁化路500號	臺中市	大里區	120.702872	24.096349
全聯	大里立中	(41247)臺中市大里區立中街27號	臺中市	大里區	120.697101	24.101457
全聯	大里新芳	(41284)臺中市大里區新芳路1號	臺中市	大里區	120.687453	24.103356
全聯	國光	臺中市大里區國光路二段70號	臺中市	大里區	120.682214	24.102065
全聯	大里	臺中市大里區東榮路八號	臺中市	大里區	120.689167	24.110278
全聯	大里成功	臺中市大里區成功路538號	臺中市	大里區	120.703758	24.091290
全聯	塗城金德	(41275)臺中市大里區金德街16號	臺中市	大里區	120.693831	24.091472
全聯	大里益民	(41241)臺中市大里區益民路１段175號	臺中市	大里區	120.692872	24.107146
全聯	大里爽文	(41283)臺中市大里區爽文路879號	臺中市	大里區	120.674733	24.109270
全聯	大雅學府	(42856)臺中市大雅區學府路109之11號	臺中市	大雅區	120.650519	24.218604
全聯	大雅雅環	臺中市大雅區雅環路二段87號	臺中市	大雅區	120.652817	24.226284
全聯	大雅民生	(42871)臺中市大雅區民生路４段72號	臺中市	大雅區	120.668474	24.236450
全聯	台中三民	(40042)臺中市中區三民路２段140號	臺中市	中區	120.680921	24.143691
全聯	太平勤益	(41151)臺中市太平區中山路１段336號	臺中市	太平區	120.734768	24.144365
全聯	太平光興	(41148)臺中市太平區光興路746號	臺中市	太平區	120.729489	24.107090
全聯	太平中平	(41165)臺中市太平區太平路321號	臺中市	太平區	120.717763	24.122898
全聯	太平樹孝	(41168)臺中市太平區樹孝路439號	臺中市	太平區	120.720068	24.157317
全聯	太平新興	(41157)臺中市太平區新興路115.117號	臺中市	太平區	120.709608	24.159116
全聯	太平宜昌	臺中市太平區宜昌路568號1樓	臺中市	太平區	120.715848	24.147870
全聯	太平樹德	臺中市太平區樹德路117號	臺中市	太平區	120.711964	24.154341
全聯	東平	臺中市太平區東平路499號	臺中市	太平區	120.719244	24.133221
全聯	台中東山	臺中市北屯區東山路一段173之1號	臺中市	北屯區	120.706181	24.169411
全聯	軍功	(40643)臺中市北屯區軍功路２段39號	臺中市	北屯區	120.719129	24.176687
全聯	大連	臺中市北屯區大連路二段12號	臺中市	北屯區	120.682200	24.176178
全聯	北屯	臺中市北屯區北屯路289之10號	臺中市	北屯區	120.695896	24.167905
全聯	旅順	臺中市北屯區旅順路二段78號1樓	臺中市	北屯區	120.687889	24.174333
全聯	台中北屯二	(40654)臺中市北屯區北屯路417號	臺中市	北屯區	120.698884	24.175507
全聯	中清	(40678)臺中市北屯區后庄路３５巷１號	臺中市	北屯區	120.662640	24.188801
全聯	台中松五	(40644)臺中市北屯區松竹五路180號	臺中市	北屯區	120.707594	24.174541
全聯	台中軍太	(40641)臺中市北屯區軍功路１段183.185號	臺中市	北屯區	120.715707	24.165210
全聯	台中四平	(40679)臺中市北屯區四平路523號	臺中市	北屯區	120.681622	24.193182
全聯	台中大坑	(40663)臺中市北屯區東山路１段346號	臺中市	北屯區	120.726183	24.176239
全聯	台中松竹	(40675)臺中市北屯區松竹路２段178巷51號。59號	臺中市	北屯區	120.695538	24.184469
全聯	台中崇德八	(40672)臺中市北屯區崇德八路１段366。368號	臺中市	北屯區	120.682674	24.183771
全聯	台中太原	(40653)臺中市北屯區太原路３段191-1號	臺中市	北屯區	120.691452	24.165023
全聯	台中水湳	(40676)臺中市北屯區中清路２段392號	臺中市	北屯區	120.667467	24.180070
全聯	台中崇德	臺中市北區崇德路一段230號	臺中市	北區	120.685199	24.160532
全聯	台中陜西	(40464)臺中市北區陜西路66號	臺中市	北區	120.668361	24.169048
全聯	五權	(40443)臺中市北區五權路１７６號中央市場內	臺中市	北區	120.675631	24.149228
全聯	天津	臺中市北區天津路二段171號	臺中市	北區	120.678732	24.169910
全聯	台中二中	(40458)臺中市北區中清路１段27號1樓	臺中市	北區	120.677128	24.152808
全聯	台中永興	(40454)臺中市北區永興街242號	臺中市	北區	120.682596	24.165422
全聯	台中學士	(40454)臺中市北區學士路261號	臺中市	北區	120.680894	24.162162
全聯	台中博館	(40461)臺中市北區民權路466號	臺中市	北區	120.670635	24.158073
全聯	台中新民	(40459)臺中市北區健行路37號	臺中市	北區	120.689559	24.158908
全聯	台中東光	(40451)臺中市北區東光路346號	臺中市	北區	120.698994	24.154479
全聯	台中明新	(40460)臺中市北區中清路１段425號	臺中市	北區	120.673967	24.164306
全聯	台中進化	(40450)臺中市北區進化路426號	臺中市	北區	120.694583	24.156343
全聯	台中山西	(40449)臺中市北區山西路２段125號	臺中市	北區	120.675731	24.171677
全聯	台中健行	(40459)臺中市北區健行路447號	臺中市	北區	120.679878	24.159035
全聯	外埔六分	臺中市外埔區六分路297號1樓	臺中市	外埔區	120.654271	24.331843
全聯	台中石岡	(42272)臺中市石岡區豐勢路883.885號	臺中市	石岡區	120.789029	24.273830
全聯	后里文明	(42149)臺中市后里區三豐路三段855、857號	臺中市	后里區	120.721872	24.305072
全聯	后里	臺中市后里區后里村甲后路587號	臺中市	后里區	120.717197	24.309626
全聯	台中市政	臺中市西屯區文心路２段501號	臺中市	西屯區	120.646508	24.154696
全聯	大墩	(40758)臺中市西屯區大墩路1168號	臺中市	西屯區	120.652880	24.160283
全聯	中工	臺中市西屯區中工二路2號	臺中市	西屯區	120.616562	24.182015
全聯	文心	臺中市西屯區重慶路136號	臺中市	西屯區	120.656594	24.166331
全聯	台中文華	(40753)臺中市西屯區河南路１段125號	臺中市	西屯區	120.661927	24.169895
全聯	逢甲	臺中市西屯區黎明路三段246號	臺中市	西屯區	120.637622	24.179772
全聯	台中河南	(40757)臺中市西屯區河南路４段26號	臺中市	西屯區	120.636031	24.159546
全聯	台中國安	(40763)臺中市西屯區國安一路128號2樓	臺中市	西屯區	120.612986	24.191558
全聯	台中龍門	(40757)臺中市西屯區黎明路２段866號	臺中市	西屯區	120.633921	24.162367
全聯	台中青海	(40744)臺中市西屯區河南路２段466號	臺中市	西屯區	120.643556	24.170910
全聯	台中福星	(40741)臺中市西屯區福星北路60號	臺中市	西屯區	120.644784	24.184534
全聯	台中大鵬	(40754)臺中市西屯區大鵬路107號	臺中市	西屯區	120.663312	24.177942
全聯	台中忠義	(40759)臺中市西屯區太原路１段85號	臺中市	西屯區	120.659458	24.160898
全聯	台中福科	(40764)臺中市西屯區福科路562、570號	臺中市	西屯區	120.614286	24.186877
全聯	台中環中	(40765)臺中市西屯區福科路26號	臺中市	西屯區	120.633184	24.179678
全聯	台中西屯	(40763)臺中市西屯區西屯路３段157號	臺中市	西屯區	120.620472	24.186883
全聯	精誠	臺中市西區精誠路294號1樓	臺中市	西區	120.655083	24.148697
全聯	忠明	臺中市西區忠明南路445號	臺中市	西區	120.657401	24.138281
全聯	台中樂群	(40346)臺中市西區南屯路１段41號	臺中市	西區	120.666018	24.132066
全聯	台中民權	(40341)臺中市西區民權路217巷1、3號	臺中市	西區	120.669562	24.147801
全聯	台中向上	(40358)臺中市西區美村路１段298.300.302號	臺中市	西區	120.661235	24.146651
全聯	台中大忠	(40359)臺中市西區精誠二十三街30號	臺中市	西區	120.656524	24.146101
全聯	台中林森	(40345)臺中市西區林森路89號	臺中市	西區	120.671287	24.136995
全聯	台中博二	(40354)臺中市西區博館二街123.125號	臺中市	西區	120.668796	24.152818
全聯	美村綠	(40346)臺中市西區五權五街68號	臺中市	西區	120.662461	24.136732
全聯	沙鹿中山	鹿區中山路434號	臺中市	沙鹿區	120.562252	24.243908
全聯	沙鹿屏西	(43354)臺中市沙鹿區鎮南路２段46號	臺中市	沙鹿區	120.570718	24.217516
全聯	沙鹿北勢	(43342)臺中市沙鹿區北勢東路516號	臺中市	沙鹿區	120.575845	24.225901
全聯	沙鹿	臺中市沙鹿區大同街119之1號	臺中市	沙鹿區	120.559181	24.239442
全聯	大智	臺中市東區大智路350巷2號1樓	臺中市	東區	120.690057	24.129286
全聯	十甲	臺中市東區十甲路452號	臺中市	東區	120.709282	24.144367
全聯	台中樂業	(40153)臺中市東區樂業路327號	臺中市	東區	120.703279	24.138902
全聯	台中振興	(40149)臺中市東區東英路1號	臺中市	東區	120.703636	24.131345
全聯	東勢東蘭	(42341)臺中市東勢區東蘭路５４之２號	臺中市	東勢區	120.824761	24.266538
全聯	東勢豐勢	(42354)臺中市東勢區豐勢路115號	臺中市	東勢區	120.830661	24.249748
全聯	台中黎明	臺中市南屯區黎明路一段1040號	臺中市	南屯區	120.637976	24.139178
全聯	台中萬和	臺中市南屯區永春東路1043號	臺中市	南屯區	120.637932	24.135240
全聯	台中大進	(40861)臺中市南屯區大進街490號1樓	臺中市	南屯區	120.651402	24.151869
全聯	台中嶺東	(40858)臺中市南屯區嶺東路690號	臺中市	南屯區	120.611643	24.147873
全聯	台中向上三厝	(40874)臺中市南屯區向上路３段46、46-1號	臺中市	南屯區	120.635042	24.146525
全聯	台中豐樂	(40876)臺中市南屯區文心南三路690、692號	臺中市	南屯區	120.643206	24.133453
全聯	台中大昌	(40878)臺中市南屯區大墩五街98號	臺中市	南屯區	120.651922	24.141847
全聯	台中永春東	(40855)臺中市南屯區永春東路148號	臺中市	南屯區	120.651793	24.134985
全聯	台中楓樹	(40846)臺中市南屯區黎明路１段101號	臺中市	南屯區	120.626142	24.114503
全聯	台中惠文	(40867)臺中市南屯區惠文路338。338-1。338-2號	臺中市	南屯區	120.643195	24.143849
全聯	台中三和	(40841)臺中市南屯區黎明路２段68號	臺中市	南屯區	120.637198	24.144243
全聯	台中復興	臺中市南區復興路二段160號	臺中市	南區	120.665469	24.126541
全聯	台中健康	(40253)臺中市南區美村南路72號	臺中市	南區	120.667015	24.116306
全聯	台中學府	(40252)臺中市南區復興路３段126號	臺中市	南區	120.672916	24.130092
全聯	台中南門	(40250)臺中市南區台中路520號	臺中市	南區	120.683884	24.123228
全聯	台中工學	(40245)臺中市南區工學六街130、132、136號	臺中市	南區	120.660359	24.114307
全聯	台中建國南	(40242)臺中市南區建國南路１段255號	臺中市	南區	120.657623	24.124640
全聯	台中仁和	(40254)臺中市南區國光路 198號	臺中市	南區	120.679052	24.126568
全聯	烏日	(41441)臺中市烏日區中山路２段１０８號	臺中市	烏日區	120.626516	24.106038
全聯	烏日長春	(41448)臺中市烏日區長春街429號	臺中市	烏日區	120.634985	24.108021
全聯	神岡中正	(42955)臺中市神岡區中正路21號	臺中市	神岡區	120.657947	24.257399
全聯	神岡昌平	(42944)臺中市神岡區昌平路５段313巷1號	臺中市	神岡區	120.682877	24.244228
全聯	豐原三豐	臺中市神岡區五權路1號	臺中市	神岡區	120.713168	24.258759
全聯	神岡中山	臺中市神岡區中山路832號	臺中市	神岡區	120.678485	24.249665
全聯	梧棲文化	(43548)臺中市梧棲區文化路２段85號	臺中市	梧棲區	120.530180	24.254421
全聯	梧棲文昌	(43545)臺中市梧棲區文昌路501號	臺中市	梧棲區	120.537576	24.245255
全聯	梧棲中華	(43550)臺中市梧棲區中華路２段610號	臺中市	梧棲區	120.558949	24.257307
全聯	清水鰲峰	(43652)臺中市清水區鰲新路5號	臺中市	清水區	120.556603	24.266157
全聯	清水五權	(43651)臺中市清水區五權路71號	臺中市	清水區	120.568156	24.276616
全聯	清水中興	臺中市清水區中興街57號	臺中市	清水區	120.574615	24.271983
全聯	清水中山	(43653)臺中市清水區中山路8號	臺中市	清水區	120.583140	24.283250
全聯	新社中和	(42641)臺中市新社區中和街５段13號	臺中市	新社區	120.808914	24.248348
全聯	潭子豐興	(42743)臺中市潭子區豐興路１段547-555號	臺中市	潭子區	120.722450	24.203040
全聯	潭子	臺中市潭子區勝利路348號	臺中市	潭子區	120.700698	24.214270
全聯	潭陽	(42751)臺中市潭子區潭子街１段31巷64號	臺中市	潭子區	120.706403	24.212003
全聯	潭子得天	(42755)臺中市潭子區得天街80。88。92號	臺中市	潭子區	120.701653	24.196857
全聯	潭子潭豐	(42741)臺中市潭子區潭豐路２段888號	臺中市	潭子區	120.710938	24.234354
全聯	潭子中山	(42755)臺中市潭子區中山路２段107。109號	臺中市	潭子區	120.704568	24.206463
全聯	龍井中央	(43447)臺中市龍井區中央路３段46號	臺中市	龍井區	120.525077	24.212013
全聯	龍井沙田	(43452)臺中市龍井區沙田路５段382.386號	臺中市	龍井區	120.548395	24.203362
全聯	台中東海	(43442)臺中市龍井區新興路87號	臺中市	龍井區	120.584912	24.181838
全聯	豐原成功	(42053)臺中市豐原區成功路198號	臺中市	豐原區	120.708826	24.245849
全聯	豐原豐東	(42048)臺中市豐原區豐東路171號	臺中市	豐原區	120.731678	24.250349
全聯	豐原忠孝	(42044)臺中市豐原區忠孝街27號	臺中市	豐原區	120.716304	24.252408
全聯	豐原大豐	(42077)臺中市豐原區大豐路５段486號	臺中市	豐原區	120.699194	24.248436
全聯	豐原大順	(42042)臺中市豐原區大順街121、123號	臺中市	豐原區	120.723362	24.260065
全聯	豐原向陽	(42080)臺中市豐原區向陽路126、130號	臺中市	豐原區	120.724294	24.252074
全聯	豐原田心	臺中市豐原區田心路二段182號	臺中市	豐原區	120.721020	24.239670
全聯	豐原北陽	(42084)臺中市豐原區北陽路256。258號	臺中市	豐原區	120.736038	24.250925
全聯	台中豐后	(42079)臺中市豐原區三豐路556號	臺中市	豐原區	120.721410	24.270707
全聯	豐原供售站	(42079)臺中市豐原區三豐路一段382號	臺中市	豐原區	120.720042	24.261607
全聯	霧峰中正	(41344)臺中市霧峰區中正路1119號	臺中市	霧峰區	120.699103	24.069553
全聯	霧峰民生	(41343)臺中市霧峰區民生路７５號	臺中市	霧峰區	120.700108	24.064529
全聯	天母天玉	臺北市士林區天母西路3號B1	臺北市	士林區	121.529291	25.118609
全聯	士林忠誠	(11148)臺北市士林區忠誠路１段177.179號1樓	臺北市	士林區	121.530546	25.108027
全聯	士林士東	臺北市士林區士東路23號	臺北市	士林區	121.526987	25.111960
全聯	北市延平	(11173)臺北市士林區延平北路５段238號	臺北市	士林區	121.510031	25.084418
全聯	士林大南	(11161)臺北市士林區大南路315號	臺北市	士林區	121.518044	25.088704
全聯	士林社子	臺北市士林區社正路59號	臺北市	士林區	121.510087	25.089019
全聯	士林蘭雅	(11148)臺北市士林區德行東路109巷104號1樓	臺北市	士林區	121.528907	25.110999
全聯	士林後港	(11167)臺北市士林區後港街30號	臺北市	士林區	121.522796	25.083682
全聯	士林中正	(11143)臺北市士林區中正路115號1樓	臺北市	士林區	121.528909	25.095767
全聯	士林德行東	(11150)臺北市士林區德行東路331巷35號1樓	臺北市	士林區	121.537813	25.111817
全聯	天母中山北	(11151)臺北市士林區中山北路７段154巷6號1樓	臺北市	士林區	121.533110	25.124012
全聯	士林芝山	(11148)臺北市士林區忠誠路１段56號1樓	臺北市	士林區	121.527092	25.104670
全聯	大同民族西	(10374)臺北市大同區民族西路235號	臺北市	大同區	121.512067	25.068809
全聯	民生西店	(10345)臺北市大同區民生西路280號1樓	臺北市	大同區	121.513016	25.05688
全聯	大同圓環	(10345)臺北市大同區南京西路165號1樓	臺北市	大同區	121.512992	25.054088
全聯	大同大龍	(10366)臺北市大同區大龍街91巷7號B1	臺北市	大同區	121.516537	25.067419
全聯	大安芳和	(10675)臺北市大安區樂業街87號1樓、B1	臺北市	大安區	121.551268	25.021642
全聯	大安永康	(10651)臺北市大安區永康街7巷6號1樓、B1	臺北市	大安區	121.530534	25.033048
全聯	北市和平	(10643)臺北市大安區和平東路１段63號	臺北市	大安區	121.524609	25.027158
全聯	北市建國	(10659)臺北市大安區建國南路２段123巷16號	臺北市	大安區	121.539063	25.029479
全聯	大安延吉	(10696)臺北市大安區市民大道４段190號	臺北市	大安區	121.554306	25.044183
全聯	大安	(10667)臺北市大安區復興南路２段237號	臺北市	大安區	121.543827	25.026015
全聯	台北東門	(10641)臺北市大安區金山南路２段12號	臺北市	大安區	121.526988	25.033493
全聯	大安敦南	(10688)臺北市大安區忠孝東路４段126號B1	臺北市	大安區	121.547752	25.040995
全聯	大安正聲	(10694)臺北市大安區延吉街159-8號	臺北市	大安區	121.555231	25.039000
全聯	大安民榮	(10656)臺北市大安區仁愛路３段24巷12號1樓	臺北市	大安區	121.535937	25.035148
全聯	大安北師	(10670)臺北市大安區和平東路２段311巷29號	臺北市	大安區	121.545277	25.025500
全聯	大安仁愛	(10693)臺北市大安區仁愛路４段418號1樓。B1	臺北市	大安區	121.557341	25.037371
全聯	大安居安	(10680)臺北市大安區安和路２段88號1樓	臺北市	大安區	121.550382	25.029774
全聯	大安樂利	(10679)臺北市大安區樂利路89號1樓	臺北市	大安區	121.552203	25.025663
全聯	大安泰順	(10645)臺北市大安區泰順街45號1樓	臺北市	大安區	121.531273	25.022632
全聯	大直敬業	臺北市中山區敬業四路33號B1	臺北市	中山區	121.558342	25.080941
全聯	大直實踐	(10464)臺北市中山區北安路655號B1	臺北市	中山區	121.549150	25.084449
全聯	中山林森	(10453)臺北市中山區林森北路561號	臺北市	中山區	121.525815	25.064571
全聯	大直北安	(10404)臺北市中山區北安路588巷8號	臺北市	中山區	121.549244	25.080939
全聯	中山朱崙	(10492)臺北市中山區龍江路15號1.2樓	臺北市	中山區	121.540475	25.047552
全聯	松花	(10477)臺北市中山區合江街137號1樓	臺北市	中山區	121.539364	25.061652
全聯	中山南京	臺北市中山區吉林路26巷34號	臺北市	中山區	121.528364	25.051374
全聯	中山興安	(10481)臺北市中山區興安街55號	臺北市	中山區	121.541846	25.056262
全聯	中山雙連	(10449)臺北市中山區錦西街8號	臺北市	中山區	121.521642	25.060233
全聯	吉林	臺北市中山區吉林路213號	臺北市	中山區	121.530432	25.060507
全聯	中山中安	(10446)臺北市中山區中山北路２段59巷45號B1	臺北市	中山區	121.524585	25.056022
全聯	中山松江	(10468)臺北市中山區松江路318號1樓	臺北市	中山區	121.532867	25.060656
全聯	中山建國北	(10491)臺北市中山區建國北路１段48號1樓	臺北市	中山區	121.536194	25.047841
全聯	中山德惠	(10470)臺北市中山區吉林路413號1樓	臺北市	中山區	121.530535	25.066482
全聯	中山晴光	(10460)臺北市中山區林森北路575之1號	臺北市	中山區	121.525817	25.065098
全聯	中山長春	(10487)臺北市中山區長春路258巷6號1樓	臺北市	中山區	121.538794	25.054135
全聯	大直供售站	(10462)臺北市中山區北安路409號1樓	臺北市	中山區	121.543210	25.079796
全聯	中正華山	臺北市中正區忠孝東路１段86號	臺北市	中正區	121.524546	25.044362
全聯	中正延平	(10065)臺北市中正區延平南路189號	臺北市	中正區	121.507484	25.033729
全聯	中正南昌	(10074)臺北市中正區南昌路１段51巷1號	臺北市	中正區	121.517412	25.031454
全聯	中正南海	(10067)臺北市中正區南海路100、102號	臺北市	中正區	121.508254	25.028149
全聯	中正同安	(10084)臺北市中正區南昌路２段112號B1	臺北市	中正區	121.522124	25.025784
全聯	中正牯嶺	(10078)臺北市中正區和平西路１段54號	臺北市	中正區	121.519649	25.026395
全聯	內湖康樂	(11480)臺北市內湖區康樂街116號B1	臺北市	內湖區	121.619006	25.070877
全聯	內湖成功	(11456)臺北市內湖區大湖山莊街148號	臺北市	內湖區	121.601443	25.086469
全聯	內湖民權	(11465)臺北市內湖區民權東路６段90巷18號1樓	臺北市	內湖區	121.585743	25.067862
全聯	內湖金龍	臺北市內湖區金龍路215號	臺北市	內湖區	121.587235	25.088161
全聯	內湖星雲	臺北市內湖區星雲街163號	臺北市	內湖區	121.596703	25.080998
全聯	內湖	(11448)臺北市內湖區港墘路１２７巷１０號	臺北市	內湖區	121.576953	25.077882
全聯	內湖明湖	(11483)臺北市內湖區民權東路６段296巷113、115號B1	臺北市	內湖區	121.608963	25.069893
全聯	內湖德安	(11459)臺北市內湖區成功路４段30巷28弄29號及B1	臺北市	內湖區	121.591717	25.082856
全聯	內湖文湖	(11445)臺北市內湖區文湖街31號1樓、B1	臺北市	內湖區	121.561142	25.086609
全聯	內湖安康	(11487)臺北市內湖區東湖路135號1、2樓	臺北市	內湖區	121.616883	25.068227
全聯	內湖網球場	(11490)臺北市內湖區民權東路６段208號1樓	臺北市	內湖區	121.596956	25.067571
全聯	內湖東湖	(11487)臺北市內湖區東湖路118號B1	臺北市	內湖區	121.616193	25.068108
全聯	內湖瑞光	(11491)臺北市內湖區陽光街319號	臺北市	內湖區	121.579146	25.073616
全聯	內湖南湖	(11487)臺北市內湖區東湖路33巷19號B1	臺北市	內湖區	121.613412	25.069745
全聯	內湖葫洲	(11483)臺北市內湖區民權東路６段296巷20號	臺北市	內湖區	121.605950	25.072335
全聯	內湖文德	(11475)臺北市內湖區文德路212號B1	臺北市	內湖區	121.583989	25.078246
全聯	文山保儀	(11650)臺北市文山區保儀路12號	臺北市	文山區	121.568447	24.988543
全聯	文山景興	(11669)臺北市文山區景興路191號B1	臺北市	文山區	121.544359	24.992481
全聯	文山順興	(11661)臺北市文山區興隆路４段143號	臺北市	文山區	121.561653	24.985128
全聯	文山萬年	(11676)臺北市文山區羅斯福路５段170巷41號	臺北市	文山區	121.536358	25.004547
全聯	文山永建	(11645)臺北市文山區木柵路１段177號	臺北市	文山區	121.550940	24.987758
全聯	文山忠順	(11661)臺北市文山區忠順街２段22號	臺北市	文山區	121.563188	24.984593
全聯	文山木柵	(11648)臺北市文山區木柵路３段41號	臺北市	文山區	121.565806	24.988594
全聯	文山興隆	臺北市文山區興隆路一段53號地下室	臺北市	文山區	121.540969	25.003879
全聯	文山木新	臺北市文山區恆光街37號	臺北市	文山區	121.567067	24.982680
全聯	文山福興	(11691)臺北市文山區福興路62號1樓	臺北市	文山區	121.550026	25.003963
全聯	文山景美	(11674)臺北市文山區羅斯福路６段218號B1	臺北市	文山區	121.540532	24.993061
全聯	文山樟文	(11662)臺北市文山區木新路３段278巷9號B1、11號	臺北市	文山區	121.557700	24.981952
全聯	文山羅斯福	(11673)臺北市文山區羅斯福路６段142巷11號1樓	臺北市	文山區	121.539124	24.996796
全聯	文山辛亥	(11690)臺北市文山區興隆路２段252號1樓	臺北市	文山區	121.554242	25.000676
全聯	北投致遠	(11271)臺北市北投區致遠二路113巷13.15.15-1號	臺北市	北投區	121.511466	25.117048
全聯	北投明德	(11281)臺北市北投區懷德街3-10號	臺北市	北投區	121.519266	25.111108
全聯	北投中和	(11252)臺北市北投區中和街49號1樓、B1	臺北市	北投區	121.502266	25.138394
全聯	北投復興崗	(11258)臺北市北投區中央北路２段181號	臺北市	北投區	121.492696	25.137791
全聯	關渡藝大	(11257)臺北市北投區中央北路４段532號	臺北市	北投區	121.467818	25.128069
全聯	唭哩岸	(11265)臺北市北投區東華街２段180號	臺北市	北投區	121.510970	25.120295
全聯	北投	(11268)臺北市北投區北投路２段11號	臺北市	北投區	121.498763	25.130538
全聯	北投文林北	(11287)臺北市北投區文林北路116號1樓	臺北市	北投區	121.517244	25.105924
全聯	北投吉利	(11273)臺北市北投區吉利街125號1樓	臺北市	北投區	121.506712	25.118638
全聯	北投行義	(11284)臺北市北投區行義路10巷2號1樓	臺北市	北投區	121.526478	25.124278
全聯	松山吉祥	(10560)臺北市松山區光復北路11巷99號B1	臺北市	松山區	121.562455	25.050644
全聯	北市興安二	(10596)臺北市松山區民生東路３段130巷9號	臺北市	松山區	121.546386	25.056331
全聯	松山中崙	(10562)臺北市松山區八德路３段106巷1號	臺北市	松山區	121.553794	25.047639
全聯	松山鵬程	臺北市松山區健康路399號	臺北市	松山區	121.568779	25.054551
全聯	民生社區	(10574)臺北市松山區民生東路４段133號	臺北市	松山區	121.554904	25.058476
全聯	松山民有	(10543)臺北市松山區民權東路３段140巷15號1樓	臺北市	松山區	121.547074	25.060401
全聯	松山健康	(10586)臺北市松山區健康路243號B1	臺北市	松山區	121.563572	25.054406
全聯	松山三民	(10588)臺北市松山區三民路108號B1	臺北市	松山區	121.563737	25.057751
全聯	信義黎忠	(11057)臺北市信義區和平東路３段391巷16號	臺北市	信義區	121.558043	25.020321
全聯	信義嘉興	(11052)臺北市信義區基隆路２段22號B1	臺北市	信義區	121.558469	25.032024
全聯	信義六合	(11046)臺北市信義區松仁路240巷19號	臺北市	信義區	121.568866	25.024486
全聯	信義松興	(11070)臺北市信義區松隆路36號	臺北市	信義區	121.567517	25.043412
全聯	信義三興	臺北市信義區吳興街156巷6號	臺北市	信義區	121.561059	25.028892
全聯	信義林口	(11081)臺北市信義區林口街176號	臺北市	信義區	121.580822	25.040637
全聯	信義信安	(11054)臺北市信義區嘉興街245、247號1樓	臺北市	信義區	121.556192	25.024972
全聯	信義莊敬	(11050)臺北市信義區莊敬路325巷58號1樓	臺北市	信義區	121.564803	25.028976
全聯	信義松隆	(11069)臺北市信義區松隆路125號1樓	臺北市	信義區	121.571850	25.047214
全聯	南港中研	(11565)臺北市南港區研究院路２段61巷15號1樓、B1	臺北市	南港區	121.616957	25.044368
全聯	南港中坡	臺北市南港區中坡南路7號	臺北市	南港區	121.582382	25.043921
全聯	南港凌雲	(11581)臺北市南港區研究院路３段68巷9號	臺北市	南港區	121.614331	25.035253
全聯	南港中信	(11568)臺北市南港區經貿二路188號3樓	臺北市	南港區	121.616172	25.058777
全聯	南港研究院	(11571)臺北市南港區研究院路１段99號B1	臺北市	南港區	121.616574	25.052086
全聯	南港玉成	(11577)臺北市南港區玉成街189號1樓	臺北市	南港區	121.584388	25.044476
全聯	南港旗艦	(11553)臺北市南港區南港路２段20巷5號B1	臺北市	南港區	121.605588	25.054479
全聯	南港忠孝東	(11557)臺北市南港區忠孝東路６段195。197號	臺北市	南港區	121.587706	25.049283
全聯	萬華萬大	(10869)臺北市萬華區萬大路406號1樓、B1	臺北市	萬華區	121.498366	25.021439
全聯	萬華民和	(10863)臺北市萬華區民和街103號	臺北市	萬華區	121.497583	25.025335
全聯	萬華西藏	(10879)臺北市萬華區西藏路125巷9號	臺北市	萬華區	121.502346	25.028635
全聯	萬華雙園	臺北市萬華區興寧街2號	臺北市	萬華區	121.502027	25.032259
全聯	萬華中華	(10882)臺北市萬華區中華路２段666號之12	臺北市	萬華區	121.511082	25.024239
全聯	和德	(10864)臺北市萬華區西園路２段215號	臺北市	萬華區	121.494217	25.027085
全聯	萬華長沙	(10845)臺北市萬華區長沙街２段110號	臺北市	萬華區	121.504023	25.04031
全聯	萬華龍山	臺北市萬華區廣州街263號	臺北市	萬華區	121.496467	25.036898
全聯	萬華莒光	(10861)臺北市萬華區莒光路131號B1樓	臺北市	萬華區	121.503617	25.031096
全聯	台東太麻里	(96346)臺東縣太麻里鄉外環路190號	臺東縣	太麻里鄉	121.004361	22.607385
全聯	成功大同	(96142)臺東縣成功鎮大同路29號	臺東縣	成功鎮	121.373871	23.102083
全聯	台東漢陽	(95041)臺東縣臺東市漢陽南路89號	臺東縣	臺東市	121.137819	22.741971
全聯	台東更生	(95050)臺東縣臺東市更生路1051號	臺東縣	臺東市	121.130661	22.773282
全聯	台東中山	(95043)臺東縣臺東市中山路328號	臺東縣	臺東市	121.149389	22.754169
全聯	台東平等	(95042)臺東縣臺東市平等街１１號	臺東縣	臺東市	121.157008	22.752352
全聯	新生	(95053)臺東縣臺東市新生路429號	臺東縣	臺東市	121.139856	22.759379
全聯	開封	(95048)臺東縣臺東市開封街372號	臺東縣	臺東市	121.144740	22.763619
全聯	關山和平	(95662)臺東縣關山鎮和平路1-20,1-21,1-22號	臺東縣	關山鎮	121.162411	23.043914
全聯	下營中山	(73546)臺南市下營區中山路１段250號	臺南市	下營區	120.266546	23.236748
全聯	台南大勇	(70055)臺南市中西區金華路３段69號	臺南市	中西區	120.192317	22.989968
全聯	台南康樂	(70054)臺南市中西區康樂街233。237。241號	臺南市	中西區	120.194694	22.995136
全聯	台南民權	(70061)臺南市中西區民權路４段350、352號	臺南市	中西區	120.177521	22.999375
全聯	台南西和	(70060)臺南市中西區西和路106號	臺南市	中西區	120.189254	23.000618
全聯	台南仁德	臺南市仁德區民安路一段402號	臺南市	仁德區	120.250897	22.953575
全聯	仁德中清	(71753)臺南市仁德區中清路167.169號	臺南市	仁德區	120.2561426	22.9734697
全聯	台南六甲	(73441)臺南市六甲區中山路93號	臺南市	六甲區	120.349648	23.231025
全聯	台南湖美	臺南市北區和緯路五段30號	臺南市	北區	120.185447	23.006557
全聯	延平	臺南市北區公園路798號1樓	臺南市	北區	120.211274	23.011931
全聯	台南和緯	臺南市北區和緯路二段172號	臺南市	北區	120.207519	23.011980
全聯	台南海安	(70451)臺南市北區海安路３段747號	臺南市	北區	120.200311	23.012496
全聯	台南開元	(70442)臺南市北區開元路153號	臺南市	北區	120.218914	23.007286
全聯	台南忠義	(70443)臺南市北區忠義路３段85、87號	臺南市	北區	120.205674	23.000735
全聯	台南西門	(70465)臺南市北區西門路４段111號	臺南市	北區	120.206880	23.008487
全聯	永康復國	(71054)臺南市永康區復國一路5號	臺南市	永康區	120.245875	23.002239
全聯	永康大橋	(71048)臺南市永康區大橋二街218號	臺南市	永康區	120.230693	23.021258
全聯	永康中華	(71079)臺南市永康區中華路575號	臺南市	永康區	120.230887	23.012833
全聯	永康大灣	臺南市永康區崑山街1號	臺南市	永康區	120.257831	23.000323
全聯	永康永大	臺南市永康區永大路三段35號	臺南市	永康區	120.260494	23.027588
全聯	永康南工	臺南市永康區中山南路282之5號	臺南市	永康區	120.241349	23.020054
全聯	永康正強	(71071)臺南市永康區正強街172號	臺南市	永康區	120.252005	23.027635
全聯	永康中山南	(71088)臺南市永康區中山南路451號	臺南市	永康區	120.248893	23.022199
全聯	永康富強	(71062)臺南市永康區富強路１段108.110號	臺南市	永康區	120.273133	23.015618
全聯	永康北灣	(71080)臺南市永康區永大路２段936號	臺南市	永康區	120.263449	23.016132
全聯	永康中華西	(71049)臺南市永康區中華路735、737、739號	臺南市	永康區	120.227006	23.017834
全聯	永康永華	(71080)臺南市永康區永華路176號	臺南市	永康區	120.259864	23.008189
全聯	永康中正北	(71081)臺南市永康區中正北路125號	臺南市	永康區	120.240933	23.041985
全聯	台南玉井	(71443)臺南市玉井區中華路283號	臺南市	玉井區	120.466454	23.120154
全聯	白河富民	(73241)臺南市白河區富民路142號	臺南市	白河區	120.414207	23.345102
全聯	白河國泰	(73242)臺南市白河區國泰路127號	臺南市	白河區	120.412890	23.348013
全聯	台南華平	(70845)臺南市安平區華平路619號	臺南市	安平區	120.175759	22.996314
全聯	台南國平	(70845)臺南市安平區國平路210-218號	臺南市	安平區	120.171155	22.990593
全聯	安平永華	(70848)臺南市安平區永華路２段373號	臺南市	安平區	120.180286	22.989595
全聯	台南永華	(70846)臺南市安平區華平路271、273、275、277號	臺南市	安平區	120.174816	22.990061
全聯	安定安加	(74546)臺南市安定區安定262之22。23號	臺南市	安定區	120.234985	23.115168
全聯	台南安中	(70943)臺南市安南區安中路１段872號	臺南市	安南區	120.193838	23.044051
全聯	培安	(70958)臺南市安南區安和路１段463號	臺南市	安南區	120.213462	23.036363
全聯	台南北安	(70943)臺南市安南區北安路３段92.96號	臺南市	安南區	120.203091	23.040926
全聯	台南土城	(70948)臺南市安南區安中路６段702號	臺南市	安南區	120.128545	23.064700
全聯	台南安和	(70959)臺南市安南區安和路５段316.318號	臺南市	安南區	120.216482	23.068911
全聯	台南育安	(70945)臺南市安南區育安街116.120號	臺南市	安南區	120.215819	23.047040
全聯	台南安富	(70962)臺南市安南區安富街346號	臺南市	安南區	120.193439	23.026237
全聯	台南公學	(70966)臺南市安南區公學路４段29號。31號	臺南市	安南區	120.178718	23.067668
全聯	台南州南	(70965)臺南市安南區安和路４段259、261號	臺南市	安南區	120.218465	23.056126
全聯	台南海佃	(70966)臺南市安南區海佃路４段32、36號	臺南市	安南區	120.177621	23.054685
全聯	西港新興	(72343)臺南市西港區新興街8-78號	臺南市	西港區	120.202808	23.117408
全聯	佳里中山	(72243)臺南市佳里區中山路452.456號	臺南市	佳里區	120.177711	23.164736
全聯	佳里仁愛	(72259)臺南市佳里區仁愛路388號	臺南市	佳里區	120.176689	23.154734
全聯	佳里	臺南市佳里區建南街112號	臺南市	佳里區	120.176488	23.157885
全聯	佳里安西	(72247)臺南市佳里區安西路205號	臺南市	佳里區	120.170908	23.164381
全聯	官田中山	(72041)臺南市官田區中山路１段135號	臺南市	官田區	120.312002	23.192974
全聯	東山中興	(73351)臺南市東山區中興南路46號	臺南市	東山區	120.403457	23.319743
全聯	台南崇明	(70147)臺南市東區崇明路385號1、2樓	臺南市	東區	120.222863	22.974638
全聯	後甲	臺南市東區東安路20號	臺南市	東區	120.226197	22.991121
全聯	崇善	臺南市東區崇善路666號	臺南市	東區	120.231245	22.968151
全聯	裕農	臺南市東區裕農路400號	臺南市	東區	120.231162	22.98758
全聯	台南中華東	臺南市東區中華東路二段237號1樓	臺南市	東區	120.231926	22.983419
全聯	台南崇德	(70161)臺南市東區崇德路154-156號	臺南市	東區	120.220191	22.979029
全聯	台南崇道	(70171)臺南市東區崇道路22.24號	臺南市	東區	120.226355	22.972144
全聯	台南仁和	(70174)臺南市東區仁和路77-38號	臺南市	東區	120.231779	22.973962
全聯	台南小東	(70154)臺南市東區小東路246號	臺南市	東區	120.229145	22.999266
全聯	台南長榮	(70143)臺南市東區長榮路２段180號	臺南市	東區	120.220739	22.990131
全聯	台南裕忠	(70162)臺南市東區裕忠路107號	臺南市	東區	120.241929	22.985889
全聯	台南自由	(70162)臺南市東區自由路３段376號	臺南市	東區	120.237347	22.982564
全聯	金華	臺南市南區金華路二段85號	臺南市	南區	120.191191	22.979291
全聯	台南鹽埕	臺南市南區金華路一段365號	臺南市	南區	120.190284	22.969425
全聯	台南永成	(70261)臺南市南區永成路３段523號	臺南市	南區	120.195211	22.973993
全聯	台南健康	(70263)臺南市南區健康路１段435號	臺南市	南區	120.198234	22.981303
全聯	台南中華西	(70262)臺南市南區中華西路１段306號	臺南市	南區	120.186265	22.982604
全聯	台南明興	(70261)臺南市南區明興路55  57號	臺南市	南區	120.187945	22.959543
全聯	台南夏林	(70247)臺南市南區夏林路71號	臺南市	南區	120.1952445	22.9829991
全聯	台南灣裡	(70257)臺南市南區興南街200號	臺南市	南區	120.181477	22.921354
全聯	柳營中山	(73657)臺南市柳營區中山西路１段165號	臺南市	柳營區	120.320833	23.278946
全聯	麻豆興中	(72145)臺南市麻豆區興中路248之21號、250巷7號	臺南市	麻豆區	120.259194	23.183501
全聯	麻豆博愛	(72144)臺南市麻豆區博愛路3-1號	臺南市	麻豆區	120.250787	23.184804
全聯	麻豆	(72144)臺南市麻豆區博愛路７號	臺南市	麻豆區	120.250753	23.185315
全聯	麻豆中山	(72149)臺南市麻豆區中山路82號	臺南市	麻豆區	120.246186	23.183854
全聯	麻豆中正	(72144)臺南市麻豆區中正路348.348-1號	臺南市	麻豆區	120.252816	23.189147
全聯	善化忠孝	(74153)臺南市善化區忠孝路66號	臺南市	善化區	120.303192	23.132616
全聯	善化中正	(74151)臺南市善化區中正路419號	臺南市	善化區	120.293893	23.128876
全聯	新化	臺南市新化區中正路540之1號	臺南市	新化區	120.30702	23.039989
全聯	新化忠孝	(71251)臺南市新化區忠孝路198-7、202號	臺南市	新化區	120.300712	23.037013
全聯	台南新市	(74447)臺南市新市區中正路162號	臺南市	新市區	120.291524	23.074280
全聯	新市復興	(74444)臺南市新市區復興路213、215號	臺南市	新市區	120.295181	23.085204
全聯	新營金華	臺南市新營區隋唐街197號	臺南市	新營區	120.300570	23.307731
全聯	新營復興	(73043)臺南市新營區復興路150-3號1.2樓	臺南市	新營區	120.308117	23.303263
全聯	民治	臺南市新營區民治路5之1號1樓	臺南市	新營區	120.320828	23.310854
全聯	新營民生	(73051)臺南市新營區民生路172號	臺南市	新營區	120.307132	23.311551
全聯	學甲華宗	(72645)臺南市學甲區華宗路501號	臺南市	學甲區	120.182635	23.236003
全聯	歸仁	臺南市歸仁區復興路87號	臺南市	歸仁區	120.295926	22.965000
全聯	歸仁中山	(71152)臺南市歸仁區中山路３段2號	臺南市	歸仁區	120.287665	22.967742
全聯	歸仁文化	(71147)臺南市歸仁區文化街３段107號	臺南市	歸仁區	120.285750	22.970761
全聯	歸仁忠孝北	(71143)臺南市歸仁區忠孝北路158號	臺南市	歸仁區	120.299769	22.969832
全聯	台南關廟	(71843)臺南市關廟區南雄路１段1001號	臺南市	關廟區	120.328547	22.956110
全聯	關廟南雄	(71841)臺南市關廟區南雄路２段417.421號	臺南市	關廟區	120.327936	22.965703
全聯	鹽水	(73741)臺南市鹽水區後厝70號	臺南市	鹽水區	120.271833	23.319945
全聯	澎湖文光	(88044)澎湖縣馬公市文光路85號	澎湖縣	馬公市	119.571122	23.577093
全聯	澎湖百麗	(88049)澎湖縣馬公市新店路398號	澎湖縣	馬公市	119.581643	23.563060
全聯	澎湖民權	(88049)澎湖縣馬公市民權路51號	澎湖縣	馬公市	119.567438	23.564998
全聯	澎湖海埔	(88050)澎湖縣馬公市海埔路79號	澎湖縣	馬公市	119.572814	23.568750
全聯	澎湖光榮	(88045)澎湖縣馬公市光榮街103。105號	澎湖縣	馬公市	119.573846	23.575865
全聯	澎湖湖西	(88541)澎湖縣湖西鄉湖西村77-18號	澎湖縣	湖西鄉	119.657153	23.582312
