類別	名稱	地址	縣市	鄉鎮	經度	緯度
日藥本舖	東門永康門市	台北市中正區信義路二段209號	台北市	中正區	121.5302	25.03391
日藥本舖	台北站前地下街門市	台北市中正區忠孝西路一段50-1號 站前地下街Z2出口	台北市	中正區	121.5157	25.0463
日藥本舖	城中門市	台北市中正區重慶南路一段123號	台北市	中正區	121.5133	25.04217
日藥本舖	日藥本舖台北南西門市	台北市大同區南京西路46號	台北市	大同區	121.5192	25.05273
日藥本舖	馬偕門市	台北市中山區民生西路24號	台北市	中山區	121.5219	25.05767
日藥本舖	中山門市	台北市中山區南京東路一段52號	台北市	中山區	121.5247	25.05182
日藥本舖	松江門市	台北市中山區松江路295號	台北市	中山區	121.5334	25.061
日藥本舖	饒河門市	台北市松山區八德路四段721號	台北市	松山區	121.5772	25.05024
日藥本舖	三民門市	台北市松山區南京東路五段60號	台北市	松山區	121.5606	25.05125
日藥本舖	西門門市	台北市萬華區西寧南路83號	台北市	萬華區	121.507	25.04574
日藥本舖	忠孝愛買門市	台北市信義區忠孝東路五段297號B2樓	台北市	信義區	121.573162	25.0412245
日藥本舖	信義遠百門市	台北市信義區松仁路58號B2	台北市	信義區	121.5678	25.03685
日藥本舖	天母士東門市	台北市士林區士東路86-2號1樓	台北市	士林區	121.5288	25.112
日藥本舖	天母高島屋門市	台北市士林區忠誠路二段55號1樓	台北市	士林區	121.5315	25.11183
日藥本舖	南港車站門市	台北市南港區忠孝東路七段371號B2	台北市	南港區	121.6072	25.05298
日藥本舖	板橋南雅愛買門市	新北市板橋區貴興路101號2樓	新北市	板橋區	121.4568	25.00157
日藥本舖	板橋車站門市	新北市板橋區縣民大道2段7號2樓	新北市	板橋區	121.4638	25.01413
日藥本舖	府中門市	新北市板橋區府中路67號	新北市	板橋區	121.4581	25.00924
日藥本舖	大坪林門市	新北市新店區民權路41號	新北市	新店區	121.5406	24.98276
日藥本舖	永和頂溪門市	新北市永和區永和路二段175號1樓	新北市	永和區	121.5152	25.01326
日藥本舖	永和門市	新北市永和區中正路154號	新北市	永和區	121.515	24.99635
日藥本舖	中和環球門市	新北市中和區中山路三段122號3樓	新北市	中和區	121.4748	25.0072
日藥本舖	三峽北大門市	新北市三峽區大學路117號	新北市	三峽區	121.375	24.94299
日藥本舖	三重愛買門市	新北市三重區中正北路193巷45號1樓	新北市	三重區	121.4760132	25.0713682
日藥本舖	三重門市	新北市三重區正義北路15-5號	新北市	三重區	121.4978	25.06314
日藥本舖	新莊幸福門市	新北市新莊區幸福路733號1樓	新北市	新莊區	121.4491	25.04892
日藥本舖	林口環球A9門市	新北市林口區文化三路一段2號1樓	新北市	林口區	121.3615	25.06634
日藥本舖	淡水老街門市	新北市淡水區中正路55號	新北市	淡水區	121.4418	25.16932
日藥本舖	中壢大潤發門市	桃園市中壢區中北路二段468號1樓	桃園市	中壢區	121.2345	24.95417
日藥本舖	內壢家樂福門市	桃園市中壢區中華路一段450號1樓	桃園市	中壢區	121.2536	24.97254
日藥本舖	桃園愛買門市	桃園市桃園區中山路939號1樓	桃園市	桃園區	121.2862	24.98483
日藥本舖	桃園經國家樂福門市	桃園市桃園區經國路369號B1	桃園市	桃園區	121.305	25.016
日藥本舖	桃園站前	桃園市桃園區復興路166號	桃園市	桃園區	121.3124	24.99043
日藥本舖	環球桃園A8門市	桃園市龜山區復興1路8號2F	桃園市	龜山區	121.3701	25.0606
日藥本舖	桃園台茂門市	桃園市蘆竹區南崁路一段112號B2	桃園市	蘆竹區	121.2881	25.0533
日藥本舖	新竹愛買門市	新竹市東區公道五路二段469號1樓	新竹市	東區	120.993	24.80445
日藥本舖	新竹晶品城門市	新竹市東區林森路18號1樓	新竹市	東區	120.9706	24.80237
日藥本舖	竹北家樂福	新竹縣竹北市光明六路89號2樓	新竹縣	竹北市	121.0094902	24.8267553
日藥本舖	竹北遠百門市	新竹縣竹北市十興里1鄰莊敬北路18號B2樓 櫃號B119	新竹縣	竹北市	121.0241	24.82415
日藥本舖	台中復興愛買門市	台中市南區復興路一段359號 櫃位編號1F-10	台中市	南區	120.654	24.11545
日藥本舖	台中美村門市	台中市西區美村路一段36號一樓	台中市	西區	120.6615	24.15384
日藥本舖	台中金典門市	台中市西區健行路1049號1樓 櫃位編號 L104	台中市	西區	120.6633	24.15574
日藥本舖	台中一中門市	台中市北區尊賢街7號1樓	台中市	北區	120.6853	24.14878
日藥本舖	西屯家樂福門市	台中市西屯區福林里台灣大道四段1086號1樓	台中市	西屯區	120.615	24.18413
日藥本舖	台中水湳愛買門市	台中市西屯區中清路2段1199號B1	台中市	西屯區	120.6599	24.19271
日藥本舖	台中老虎城	台中市西屯區河南路三段120號(日藥本舖 3F)	台中市	西屯區	120.6381	24.16425
日藥本舖	台中逢甲門市	台中市西屯區福星路450號	台中市	西屯區	120.6449	24.17837
日藥本舖	文心家樂福門市	台中市南屯區文心路一段521號B1樓	台中市	南屯區	120.6462	24.15407
日藥本舖	大里大買家門市	台中市大里區國光路二段710號B1	台中市	大里區	120.6796	24.11523
日藥本舖	豐原家樂福門市	台中市豐原區成功路500號1樓	台中市	豐原區	120.7061	24.25203
日藥本舖	彰化家樂福門市	彰化縣彰化市金馬路二段321號B1	彰化縣	彰化市	120.5424	24.09449
日藥本舖	員林大潤發門市	彰化縣埔心鄉中山路一段319號2F	彰化縣	埔心鄉	120.5634	23.94755
日藥本舖	南投家樂福門市	南投縣南投市三和三路21號1樓	南投縣	南投市	120.6891	23.90585
日藥本舖	斗六家樂福門市	雲林縣斗六市雲林路二段297號	雲林縣	斗六市	120.5303	23.70139
日藥本舖	嘉義耐斯門市	嘉義市東區忠孝路600號4F	嘉義市	東區	120.4526	23.49652
日藥本舖	嘉義大潤發門市	嘉義市西區博愛路二段281號B1	嘉義市	西區	120.4381	23.47813
日藥本舖	台南安平家樂福門市	台南市中西區中華西路二段16號1樓	台南市	中西區	120.1871	22.98843
日藥本舖	台南新天地門市	台南市中西區西門路一段658號6樓	台南市	中西區	120.1982	22.9868
日藥本舖	台南中山門市	台南市中西區中山路138號	台南市	中西區	120.2094	22.99516
日藥本舖	永康愛買門市	台南市永康區中正南路533號1樓	台南市	永康區	120.2289	23.03457
日藥本舖	仁德家樂福門市	台南市仁德區中山路711號2樓	台南市	仁德區	120.2467	22.97246
日藥本舖	高雄六合門市	高雄市新興區六合二路10號	高雄市	新興區	120.3016	22.63301
日藥本舖	高雄瑞豐門市	高雄市鼓山區裕誠路1101號	高雄市	鼓山區	120.2986	22.6657
日藥本舖	高雄成功家樂福門市	高雄市前鎮區中華五路1111號	高雄市	前鎮區	120.3042	22.60498
日藥本舖	高雄SOGO門市	高雄市前鎮區三多三路217號B2	高雄市	前鎮區	120.306	22.61427
日藥本舖	高雄鼎山家樂福門市	高雄市三民區大順二路849號3樓	高雄市	三民區	120.319	22.65303
日藥本舖	楠梓家樂福門市	高雄市楠梓區藍田路288號1樓	高雄市	楠梓區	120.2904	22.72772
日藥本舖	左營新光三越門市	高雄市左營區高鐵路123號3樓	高雄市	左營區	120.3102	22.68876
日藥本舖	鳳山門市	高雄市鳳山區中山路191號1樓	高雄市	鳳山區	120.3571	22.62374
日藥本舖	屏東環球門市	屏東縣屏東市仁愛路90號1樓	屏東縣	屏東市	120.4936	22.67328
日藥本舖	屏東車站門市	屏東縣屏東市擇仁里公勇路62號1樓	屏東縣	屏東市	120.4857	22.66884
日藥本舖	花蓮愛買門市	花蓮縣花蓮市和平路581號B1	花蓮縣	花蓮市	121.5996077	23.9781431
日藥本舖	花蓮門市	花蓮縣花蓮市中山路178號	花蓮縣	花蓮市	121.6088	23.97786
日藥本舖	宜蘭羅東門市	宜蘭縣羅東鎮興東路75號	宜蘭縣	羅東鎮	121.7683	24.6779
